[{"title": "\u6d1b\u7881\u5927\u98ef\u5e97\u5fe0\u5b5d\u9928", "address": "\u81fa\u5317\u5e02\u5927\u5b89\u5340\u5fe0\u5b5d\u6771\u8def\u56db\u6bb5180\u865f1\u6a13\u30014\u6a13\u81f314\u6a13", "lat": "25.041287", "lon": "121.551503"}, {"title": "\u7530\u4e2d\u5148\u751f\u9109\u6751\u6c11\u5bbf", "address": "\u82b1\u84ee\u7e23\u5bcc\u91cc\u9109\u7f85\u5c71\u6751\u7f85\u5c71115\u865f", "lat": "23.20424672", "lon": "121.28952916"}, {"title": "\u8f49\u89d2\u4f11\u9592\u6c11\u5bbf", "address": "\u5b9c\u862d\u7e23\u4e94\u7d50\u9109\u89aa\u6cb3\u8def\u4e00\u6bb5222\u5df712\u865f", "lat": "24.669168", "lon": "121.817503"}, {"title": "\u6a02\u7aa9\u91d1\u9580", "address": "\u91d1\u9580\u7e23\u91d1\u6e56\u93ae\u524d\u6e2f\u8def5\u5df712\u865f", "lat": "24.43370909", "lon": "118.41399099"}, {"title": "\u51f1\u838e\u7433\u5ead\u5712\u5927\u98ef\u5e97", "address": "\u9ad8\u96c4\u5e02\u524d\u91d1\u5340\u6587\u6b66\u4e09\u8857145\u865f", "lat": "22.620854", "lon": "120.298224"}, {"title": "\u67f4\u67f4\u5c4b", "address": "\u5b9c\u862d\u7e23\u4e94\u7d50\u9109\u4e94\u7d50\u4e2d\u8def\u4e8c\u6bb5559\u5df75\u865f", "lat": "24.6981", "lon": "121.793505"}, {"title": "\u601d\u6e90\u5c45\u6c11\u5bbf", "address": "\u5357\u6295\u7e23\u57d4\u91cc\u93ae\u6c34\u982d\u91cc\u6c34\u982d\u8def1\u865f", "lat": "23.935137", "lon": "120.970448"}, {"title": "\u514b\u535c\u52d2\u6c11\u5bbf", "address": "\u81fa\u6771\u7e23\u9e7f\u91ce\u9109\u9f8d\u7530\u67513\u9130\u9f8d\u4e09\u8def112\u5df720\u865f", "lat": "22.904111", "lon": "121.127743"}, {"title": "\u51f1\u65cb\u65b0\u5bbf\u5546\u65c5", "address": "\u81fa\u6771\u7e23\u81fa\u6771\u5e02\u5fa9\u8208\u91cc\u798f\u5efa\u8def243\u865f1-5\u6a13", "lat": "22.7513866", "lon": "121.1515273"}, {"title": "\u5357\u570b\u6d77\u5cb8\u6e21\u5047\u7279\u8272\u6c11\u5bbf", "address": "\u5c4f\u6771\u7e23\u7409\u7403\u9109\u809a\u4ed4\u576a\u8def8\u865f", "lat": "22.342546", "lon": "120.364146"}, {"title": "\u6a02\u6d3b\u6c11\u5bbf", "address": "\u81fa\u6771\u7e23\u81fa\u6771\u5e02\u5ca9\u7063\u91cc\u6587\u660c\u8def61\u865f", "lat": "22.79064", "lon": "121.125799"}, {"title": "\u662d\u6708\u6c11\u5bbf", "address": "\u81fa\u4e2d\u5e02\u6771\u52e2\u5340\u6176\u798f\u91cc\u6176\u798f\u885739\u865f", "lat": "24.19779", "lon": "120.852566"}, {"title": "\u745a\u5ca9\u7f8e\u8853\u9928\u6c11\u5bbf", "address": "\u5c4f\u6771\u7e23\u7409\u7403\u9109\u4e2d\u5c71\u8def23\u865f", "lat": "22.344895", "lon": "120.375138"}, {"title": "\u4f55\u7559\u6c11\u5bbf", "address": "\u82b1\u84ee\u7e23\u9cf3\u6797\u93ae\u69ae\u958b\u8def88\u865f", "lat": "23.779134", "lon": "121.477171"}, {"title": "\u7027\u5fb7\u9280\u65c5\u5e97", "address": "\u5c4f\u6771\u7e23\u6046\u6625\u93ae\u4e2d\u6b63\u8def232\u5df715\u5f042\u865f", "lat": "22.006553", "lon": "120.744009"}, {"title": "\u8fea\u5662\u53e2\u6797\u65c5\u5bbf", "address": "\u5c4f\u6771\u7e23\u6046\u6625\u93ae\u9f8d\u6cc9\u8def3\u5df710\u865f", "lat": "21.987653", "lon": "120.740148"}, {"title": "\u5b89\u5fb7\u98ef\u5e97", "address": "\u81fa\u6771\u7e23\u7da0\u5cf6\u9109\u5357\u5bee\u6751\u6f01\u6e2f\u8def6\u4e4b1\u865f1-2\u6a13", "lat": "22.66924173", "lon": "121.46827735"}, {"title": "\u541b\u9226\u5546\u52d9\u98ef\u5e97", "address": "\u81fa\u4e2d\u5e02\u5317\u5c6f\u5340\u5927\u9023\u8def1\u6bb5278", "lat": "24.176936", "lon": "120.676675"}, {"title": "\u671d\u6614\u5eec\u5ba2\u68e7\u6c11\u5bbf", "address": "\u6f8e\u6e56\u7e23\u99ac\u516c\u5e02\u5b89\u5b85\u91cc\u5b85\u8173\u5dbc200\u865f", "lat": "23.56622492", "lon": "119.57877553"}, {"title": "\u6749\u6797\u6eaa\u4e3b\u984c\u6703\u9928", "address": "\u5357\u6295\u7e23\u7af9\u5c71\u93ae\u5927\u978d\u91cc\u6eaa\u5c71\u8def6\u865f", "lat": "23.635687", "lon": "120.793152"}, {"title": "\u512a\u904a\u771f\u7dbb\u6c11\u5bbf", "address": "\u5b9c\u862d\u7e23\u7f85\u6771\u93ae\u65b0\u7fa4\u91cc\u65b0\u7fa4\u4e94\u8def58\u865f", "lat": "24.674304", "lon": "121.797483"}, {"title": "\u746a\u62c9\u677e\u6c11\u5bbf", "address": "\u81fa\u6771\u7e23\u81fa\u6771\u5e02\u77e5\u672c\u8def\u4e09\u6bb5398\u5df727\u865f", "lat": "22.708049", "lon": "121.047824"}, {"title": "\u842c\u91d1\u9f8d\u6eab\u6cc9\u6c11\u5bbf", "address": "\u65b0\u5317\u5e02\u842c\u91cc\u5340\u842c\u91cc\u52a0\u629545\u4e4b6\u865f", "lat": "25.21082666", "lon": "121.63940279"}, {"title": "\u5764\u6210\u65c5\u5bbf", "address": "\u6843\u5712\u5e02\u5927\u5712\u5340\u7af9\u570d\u885712\u5df78\u865f", "lat": "25.104323", "lon": "121.243323"}, {"title": "\u7d14\u820d\u6c11\u5bbf", "address": "\u82b1\u84ee\u7e23\u5409\u5b89\u9109\u6771\u660c\u675122\u9130\u6771\u6d77\u5341\u4e94\u885780\u5df719\u5f0448\u865f", "lat": "23.96217", "lon": "121.594417"}, {"title": "\u55ac\u7235\u65c5\u5c45", "address": "\u6843\u5712\u5e02\u4e2d\u58e2\u5340\u5ef6\u5e73\u8def216\u865f", "lat": "24.961997", "lon": "121.227323"}, {"title": "\u5357\u79d1\u8d0a\u7f8e\u9152\u5e97", "address": "\u81fa\u5357\u5e02\u5584\u5316\u5340\u6210\u529f\u8def252\u865f", "lat": "23.130166", "lon": "120.308744"}, {"title": "\u7f8e\u5824\u6642\u5c1a\u65c5\u5e97", "address": "\u6843\u5712\u5e02\u4e2d\u58e2\u5340\u5065\u884c\u8def7\u865f", "lat": "24.952796", "lon": "121.226505"}, {"title": "\u5854\u7f85\u4e4b\u6615\u6c11\u5bbf", "address": "\u81fa\u6771\u7e23\u81fa\u6771\u5e02\u4e2d\u6b63\u8def173\u865f", "lat": "22.7542709", "lon": "121.1550355"}, {"title": "\u6749\u6797\u6eaa\u5927\u98ef\u5e97", "address": "\u5357\u6295\u7e23\u7af9\u5c71\u93ae\u5927\u978d\u91cc\u6eaa\u5c71\u8def20\u865f", "lat": "23.634463", "lon": "120.791194"}, {"title": "\u91d1\u6bdb\u5c4b", "address": "\u81fa\u5357\u5e02\u5b89\u5e73\u5340\u6f01\u5149\u8def119\u5df71\u865f", "lat": "22.976938", "lon": "120.160962"}, {"title": "\u592a\u9b6f\u95a3\u6676\u82f1\u9152\u5e97", "address": "\u82b1\u84ee\u7e23\u79c0\u6797\u9109\u5bcc\u4e16\u6751\u5929\u7965\u8def18\u865f", "lat": "24.11867369", "lon": "121.6248619"}, {"title": "\u771f\u6b23\u6e21\u5047\u98ef\u5e97", "address": "\u5b9c\u862d\u7e23\u4e94\u7d50\u9109\u5354\u548c\u91cc\u516c\u5712\u8def98\u5df717\u300119\u865f", "lat": "24.67960953", "lon": "121.81347258"}, {"title": "\u96c0\u5c4f\u5c71\u838a", "address": "\u81fa\u6771\u7e23\u5351\u5357\u9109\u6eab\u6cc9\u6751\u9f8d\u6cc9\u8def113\u5df725\u865f", "lat": "22.6900062", "lon": "121.007506"}, {"title": "6\u865f\u7f8e\u5bbf\u9928\u6c11\u5bbf", "address": "\u82b1\u84ee\u7e23\u82b1\u84ee\u5e02\u570b\u76db\u91cc\u570b\u76db\u516b\u885795\u865f", "lat": "23.99605795", "lon": "121.60658189"}, {"title": "\u827e\u871c\u9e97\u5ead\u5712\u5225\u5885", "address": "\u81fa\u6771\u7e23\u81fa\u6771\u5e02\u5fd7\u822a\u8def1\u6bb5412\u5df730\u865f", "lat": "22.7848602", "lon": "121.1300835"}, {"title": "\u529b\u6b50\u6642\u5c1a\u65c5\u9928\u897f\u9580\u9928", "address": "\u81fa\u5317\u5e02\u842c\u83ef\u5340\u5eb7\u5b9a\u8def25\u5df736\u5f044,6\u865f2-4\u6a13", "lat": "22.7848602", "lon": "121.1300835"}, {"title": "\u6771\u7cd629\u6c11\u5bbf", "address": "\u81fa\u6771\u7e23\u81fa\u6771\u5e02\u5149\u660e\u91cc\u6771\u7cd6\u885729\u865f", "lat": "22.7666", "lon": "121.129995"}, {"title": "\u7063\u6a4b\u5c71\u6797\u6703\u9928\u6c11\u5bbf", "address": "\u5609\u7fa9\u7e23\u7af9\u5d0e\u9109\u7063\u6a4b\u675116\u9130\u7063\u6a4b184\u5df72\u4e4b1\u865f", "lat": "23.52302595", "lon": "120.55130237"}, {"title": "\u8001\u723a\u5927\u9152\u5e97", "address": "\u81fa\u5317\u5e02\u4e2d\u5c71\u5340\u4e2d\u5c71\u5317\u8def2\u6bb537\u4e4b1\u865f", "lat": "25.05375", "lon": "121.522861"}, {"title": "\u7159\u6ce2\u5927\u98ef\u5e97-\u9e97\u6c60\u9928", "address": "\u65b0\u7af9\u5e02\u6771\u5340\u660e\u6e56\u8def773\u865f1-6\u6a13", "lat": "24.774614", "lon": "120.967631"}, {"title": "\u6167\u4f86\u8fb2\u838a", "address": "\u5357\u6295\u7e23\u57d4\u91cc\u93ae\u6843\u7c73\u91cc\u6843\u7c73\u5df72-1\u865f", "lat": "23.939362", "lon": "120.942001"}, {"title": "\u78a7\u96f2\u5929\u6e21\u5047\u6751", "address": "\u9023\u6c5f\u7e23\u5317\u7aff\u9109\u5858\u5c90\u6751255\u865f", "lat": "26.225552", "lon": "119.994754"}, {"title": "\u6771\u5149\u5927\u98ef\u5e97", "address": "\u5357\u6295\u7e23\u4fe1\u7fa9\u9109\u6771\u57d4\u6751\u958b\u9ad8\u5df772-2\u865f", "lat": "23.561399", "lon": "120.928147"}, {"title": "\u6625\u590f\u79cb\u51ac", "address": "\u5b9c\u862d\u7e23\u51ac\u5c71\u9109\u516b\u4ed9\u4e09\u8def15\u5df738\u865f", "lat": "24.659297", "lon": "121.780186"}, {"title": "\u516d\u661f\u65c5\u9928", "address": "\u6843\u5712\u5e02\u6843\u5712\u5340\u7d93\u570b\u8def721\u865f", "lat": "25.024544", "lon": "121.300815"}, {"title": "\u4e09\u96bb\u8173\u6c11\u5bbf", "address": "\u9023\u6c5f\u7e23\u5357\u7aff\u9109\u99ac\u7956\u675123\u865f", "lat": "26.160908", "lon": "119.949152"}, {"title": "\u5169\u5169\u9752\u65c5\u6c11\u5bbf", "address": "\u82b1\u84ee\u7e23\u82b1\u84ee\u5e02\u570b\u806f\u91cc19\u9130\u570b\u8208\u56db\u88572\u5df710\u865f", "lat": "23.98953742", "lon": "121.60463615"}, {"title": "\u6c90\u6d77\u6c11\u5bbf", "address": "\u82b1\u84ee\u7e23\u58fd\u8c50\u9109\u9e7d\u5bee\u6751\u798f\u5fb7196\u865f", "lat": "23.90305541", "lon": "121.60390632"}, {"title": "\u5137\u5712\u98ef\u5e97", "address": "\u81fa\u5317\u5e02\u4e2d\u6b63\u5340\u7f85\u65af\u798f\u8def\u4e09\u6bb598\u865f1-8\u6a13", "lat": "25.021513", "lon": "121.526883"}, {"title": "\u597d\u66f8\u5ba4\u6c11\u5bbf", "address": "\u82b1\u84ee\u7e23\u82b1\u84ee\u5e02\u6797\u653f\u885733\u5df723\u865f", "lat": "23.980166", "lon": "121.595261"}, {"title": "\u860b\u679c\u7684\u5bb6\u6e21\u5047\u5225\u5885\u6c11\u5bbf", "address": "\u5357\u6295\u7e23\u96c6\u96c6\u93ae\u516b\u5f35\u91cc1\u9130\u6c11\u6b0a\u8def272\u865f", "lat": "23.826982", "lon": "120.792003"}, {"title": "\u561f\u561f\u597d\u6c11\u5bbf", "address": "\u81fa\u6771\u7e23\u9e7f\u91ce\u9109\u6c38\u5b89\u6751\u9e7f\u5bee\u8def82\u5df722\u865f", "lat": "22.935341", "lon": "121.129925"}, {"title": "\u6d6a\u82b1\u65c5\u5e97\u6c11\u5bbf", "address": "\u5c4f\u6771\u7e23\u6046\u6625\u93ae\u5357\u7063\u8def188\u3001190\u865f", "lat": "21.960809", "lon": "120.763935"}, {"title": "\u5d16\u4e0a\u6c11\u5bbf", "address": "\u82b1\u84ee\u7e23\u8c50\u6ff1\u9109\u65b0\u793e\u6751\u65b0\u793e211\u865f", "lat": "23.636583", "lon": "121.532653"}, {"title": "\u89aa\u6c3489\u9957\u6a02\u6c11\u5bbf", "address": "\u5b9c\u862d\u7e23\u4e94\u7d50\u9109\u5354\u548c\u6751\u89aa\u6cb3\u8def2\u6bb558\u5df789\u865f", "lat": "24.674153", "lon": "121.813658"}, {"title": "\u9577\u9752\u8c37", "address": "\u82d7\u6817\u7e23\u5353\u862d\u93ae\u4e0a\u65b0\u91cc15\u9130\u98df\u6c34\u575178\u865f", "lat": "24.313726", "lon": "120.870072"}, {"title": "\u69ae\u7f8e\u91d1\u9b31\u91d1\u9999\u9152\u5e97", "address": "\u81fa\u5357\u5e02\u5317\u5340\u5b89\u6c11\u91cc\u6d77\u5b89\u8def3\u6bb550\u865f", "lat": "23.00182", "lon": "120.199612"}, {"title": "\u58be\u4e01\u6c90\u6668\u65c5\u5e97", "address": "\u5c4f\u6771\u7e23\u6046\u6625\u93ae\u6046\u516c\u8def208\u5df715\u5f043\u865f", "lat": "22.00386195", "lon": "120.74726646"}, {"title": "\u6bd4\u7802\u9e93\u6c11\u5bbf", "address": "\u81fa\u6771\u7e23\u5ef6\u5e73\u9109\u6843\u6e90\u6751\u6607\u5e73\u8def160-1\u865f", "lat": "22.9037935", "lon": "121.0820349"}, {"title": "\u65b0\u597d\u666f\u5546\u52d9\u6c7d\u8eca\u65c5\u9928", "address": "\u57fa\u9686\u5e02\u5b89\u6a02\u5340\u6b66\u5d19\u8857201\u865f", "lat": "25.138673", "lon": "121.707369"}, {"title": "\u862d\u5ead\u6c11\u5bbf", "address": "\u5b9c\u862d\u7e23\u54e1\u5c71\u9109\u8ce2\u5fb7\u8def\u4e00\u6bb530\u865f", "lat": "25.138673", "lon": "121.707369"}, {"title": "\u9cf3\u8abc\u88fd\u8336\u6c11\u5bbf", "address": "\u5357\u6295\u7e23\u9e7f\u8c37\u9109\u9cf3\u51f0\u6751\u9cf3\u5712\u8def11\u865f", "lat": "23.734656", "lon": "120.785383"}, {"title": "\u6046\u6625\u5de5\u5546\u5be6\u7fd2\u65c5\u9928", "address": "\u5c4f\u6771\u7e23\u6046\u6625\u93ae\u6046\u5357\u8def38\u865f", "lat": "21.992097", "lon": "120.747223"}, {"title": "\u53f0\u5317\u5546\u65c5(\u5927\u5b89\u9928)", "address": "\u81fa\u5317\u5e02\u5927\u5b89\u5340\u5927\u5b89\u8def\u4e00\u6bb5135\u865f", "lat": "25.038688", "lon": "121.54615"}, {"title": "\u6f3e\u4e4b\u8c37\u6eab\u6cc9\u6c11\u5bbf", "address": "\u5357\u6295\u7e23\u57d4\u91cc\u93ae\u8708\u86a3\u91cc\u4e2d\u5c71\u8def\u4e00\u6bb5151\u865f", "lat": "23.98399", "lon": "121.017332"}, {"title": "\u8d85\u8cea\u5bb6\u5e73\u50f9\u6c11\u5bbf", "address": "\u5b9c\u862d\u7e23\u5b9c\u862d\u5e02\u65b0\u751f\u91cc\u74b0\u5e02\u6771\u8def\u4e09\u6bb5152\u865f", "lat": "24.76702374", "lon": "121.77080667"}, {"title": "\u8559\u6eff\u6c7d\u8eca\u65c5\u9928", "address": "\u6843\u5712\u5e02\u5927\u6eaa\u5340\u57d4\u9802\u8def1\u6bb588\u865f1-2\u6a13", "lat": "24.89755", "lon": "121.276308"}, {"title": "\u6e56\u666f\u6e21\u5047\u6c11\u5bbf", "address": "\u5357\u6295\u7e23\u9b5a\u6c60\u9109\u65e5\u6708\u6751\u5fb7\u5316\u885732\u865f", "lat": "23.84814", "lon": "120.929731"}, {"title": "\u756b\u65e5\u98a8\u5c1a\u4f11\u9592\u6703\u9928", "address": "\u81fa\u6771\u7e23\u9577\u6ff1\u9109\u5357\u7af9\u6e5626-3\u865f1-3\u6a13", "lat": "23.277412", "lon": "121.422901"}, {"title": "\u82f1\u60e0\u539f\u85dd\u6c11\u5bbf", "address": "\u81fa\u6771\u7e23\u592a\u9ebb\u91cc\u9109\u91d1\u5d1914\u91309-6\u865f", "lat": "22.628818", "lon": "121.007353"}, {"title": "\u862d\u820d\u6c11\u5bbf", "address": "\u81fa\u6771\u7e23\u81fa\u6771\u5e02\u9752\u6d77\u8def\u56db\u6bb5491\u5df726\u865f", "lat": "22.7051292", "lon": "121.0405546"}, {"title": "\u5341\u8857\u6c11\u5bbf", "address": "\u82b1\u84ee\u7e23\u82b1\u84ee\u5e02\u570b\u5bcc\u91cc\u570b\u5bcc\u5341\u885739\u865f", "lat": "23.989272", "lon": "121.596699"}, {"title": "\u4eba\u5ba2\u65c5\u9928", "address": "\u6843\u5712\u5e02\u5927\u6eaa\u5340\u57d4\u9802\u8def\u4e00\u6bb550\u865f\u300150-1\u865f\u81f350-30\u865f2\u6a13", "lat": "23.989272", "lon": "121.596699"}, {"title": "\u661f\u6f3e\u6d77\u666f\u6c11\u5bbf(\u7279\u8272\u6c11\u5bbf)", "address": "\u9023\u6c5f\u7e23\u5317\u7aff\u9109\u6a4b\u4ed4\u6751127\u865f", "lat": "26.2235", "lon": "119.994014"}, {"title": "\u5357\u65b9\u592a\u967d\u65c5\u5e97-\u5317\u9928\u6c11\u5bbf", "address": "\u5c4f\u6771\u7e23\u6046\u6625\u93ae\u58be\u4e01\u8def\u6f6d\u4ed4\u5df737\u865f", "lat": "21.95178", "lon": "120.780021"}, {"title": "\u4f73\u7f8e\u9aee\u6c11\u5bbf", "address": "\u81fa\u6771\u7e23\u81fa\u6771\u5e02\u66f4\u751f\u8def1104\u865f", "lat": "22.7742852", "lon": "121.1299227"}, {"title": "\u6085\u4f86\u5c45", "address": "\u5609\u7fa9\u7e23\u6c11\u96c4\u9109\u79c0\u6797\u6751\u6797\u5b50\u5c3e75-3\u865f", "lat": "23.516237", "lon": "120.473764"}, {"title": "\u611b\u8389\u4e9e\u6c7d\u8eca\u65c5\u9928", "address": "\u65b0\u5317\u5e02\u4e09\u5cfd\u5340\u4e2d\u5c71\u8def169\u5df710\u865f(\u4ee3\u8868\u865f)", "lat": "24.936014", "lon": "121.364072"}, {"title": "\u5408\u5c0a\u9152\u5e97", "address": "\u81fa\u5317\u5e02\u677e\u5c71\u5340\u6566\u5316\u5317\u8def150\u865f", "lat": "25.054688", "lon": "121.5486"}, {"title": "\u660e\u6c60\u5c71\u838a (\u99ac\u544a\u751f\u614b\u516c\u5712)", "address": "\u5b9c\u862d\u7e23\u5927\u540c\u9109\u82f1\u58eb\u6751\u660e\u6c60\u5c71\u838a1\u865f", "lat": "24.67758349", "lon": "121.60903605"}, {"title": "\u591a\u7f85\u6eff\u7cbe\u54c1\u6c7d\u8eca\u65c5\u9928", "address": "\u82b1\u84ee\u7e23\u82b1\u84ee\u5e02\u570b\u806f\u91cc34\u9130\u570b\u8208\u4e00\u8857123\u865f", "lat": "23.9961549", "lon": "121.60408569"}, {"title": "\u5bcc\u7389\u838a\u65c5\u793e", "address": "\u81fa\u5317\u5e02\u58eb\u6797\u5340\u798f\u6e2f\u8857149\u5df715\u5f048,10\u865f2-3\u6a13", "lat": "23.9961549", "lon": "121.60408569"}, {"title": "\u666f\u9d3b\u6c7d\u8eca\u65c5\u9928", "address": "\u6843\u5712\u5e02\u5927\u5712\u5340\u83d3\u6797\u91cc\u4e09\u6c11\u8def\u4e8c\u6bb5609\u4e4b1\u865f\u81f3609\u4e4b18\u865f", "lat": "25.075053", "lon": "121.260941"}, {"title": "\u6f01\u5bb6\u6a02\u6c11\u5bbf", "address": "\u82b1\u84ee\u7e23\u82b1\u84ee\u5e02\u570b\u5149\u91cc\u4e09\u6c11\u8857102\u865f", "lat": "23.98233798", "lon": "121.60742101"}, {"title": "\u6a4b\u738b\u82b1\u5712\u9152\u5e97", "address": "\u81fa\u4e2d\u5e02\u5317\u5c6f\u5340\u6771\u5c71\u8def2\u6bb577-11\u865f", "lat": "24.19286", "lon": "120.746915"}, {"title": "\u5fd8\u6182\ufe5d\u5982\u610f\ufe5e\u9928", "address": "\u81fa\u6771\u7e23\u592a\u9ebb\u91cc\u9109\u5927\u738b\u6751\u592a\u5cf0\u8def145\u865f", "lat": "22.614586", "lon": "121.004581"}, {"title": "\u548c\u7530\u5bb6", "address": "\u5b9c\u862d\u7e23\u51ac\u5c71\u9109\u6b66\u6df5\u6751\u6b66\u7f55\u4e09\u8def29\u865f", "lat": "24.659205", "lon": "121.797203"}, {"title": "\u661f\u82d1\u5ead\u5712\u6c11\u5bbf", "address": "\u5b9c\u862d\u7e23\u7f85\u6771\u93ae\u65b0\u7fa4\u91cc10\u9130\u65b0\u7fa4\u4e94\u8def83\u865f", "lat": "24.67436382", "lon": "121.79613429"}, {"title": "\u5c0f\u93ae\u6f2b\u6f2b\u6c11\u5bbf", "address": "\u5b9c\u862d\u7e23\u4e09\u661f\u9109\u5927\u57d4\u4e2d\u8def309\u5df79\u5f047\u865f", "lat": "24.669134", "lon": "121.709205"}, {"title": "\u4ec1\u7fa9\u6f6d\u6eab\u99a8\u6c11\u5bbf", "address": "\u5609\u7fa9\u7e23\u756a\u8def\u9109\u5167\u7515\u67515\u9130\u7af9\u5c7138\u4e4b1\u865f", "lat": "23.456232", "lon": "120.517779"}, {"title": "\u6492\u91ce\u65c5\u5e97\u6c11\u5bbf", "address": "\u6f8e\u6e56\u7e23\u99ac\u516c\u5e02\u6771\u885b\u91cc2\u9130\u6771\u885b26\u4e4b60\u865f", "lat": "23.569238", "lon": "119.598051"}, {"title": "\u6708\u7259\u6cc9\u6c11\u5bbf", "address": "\u5b9c\u862d\u7e23\u7f85\u6771\u93ae\u5317\u6295\u8857221\u865f", "lat": "24.67572289", "lon": "121.75138421"}, {"title": "\u85dd\u8853\u7d10\u7d04\u7530\u5712\u6c11\u5bbf", "address": "\u5b9c\u862d\u7e23\u58ef\u570d\u9109\u65b0\u5357\u8def109\u4e4b1\u865f\u3001\u4e4b2\u865f", "lat": "24.729618", "lon": "121.808547"}, {"title": "\u5bcc\u76db\u5546\u65c5", "address": "\u81fa\u4e2d\u5e02\u897f\u5c6f\u5340\u56db\u5ddd\u8def138\u865f", "lat": "24.729618", "lon": "121.808547"}, {"title": "\u963f\u7f85\u570b\u969b\u9752\u5e74\u65c5\u820d\u6c11\u5bbf", "address": "\u82b1\u84ee\u7e23\u82b1\u84ee\u5e02\u5bcc\u5409\u8def58-3\u865f", "lat": "23.99516373", "lon": "121.59751684"}, {"title": "\u8c50\u7530\u8fb2\u5834", "address": "\u5357\u6295\u7e23\u4ec1\u611b\u9109\u5927\u540c\u6751\u535a\u671b\u5df79-6\u865f", "lat": "24.071359", "lon": "121.172011"}, {"title": "\u99ac\u5361\u5df4\u55e8\u6587\u5275", "address": "\u81fa\u6771\u7e23\u81fa\u6771\u5e02\u66f4\u751f\u8def517\u865f", "lat": "22.764149", "lon": "121.139811"}, {"title": "\u5df4\u91cc\u5c0f\u57ce\u5821\u6c11\u5bbf", "address": "\u5c4f\u6771\u7e23\u6046\u6625\u93ae\u6046\u5357\u8def2\u5df758\u865f", "lat": "22.00386195", "lon": "120.74726646"}, {"title": "\u6c90\u6708\u5fc3\u5bbf\u6c11\u5bbf", "address": "\u81fa\u6771\u7e23\u81fa\u6771\u5e02\u5fd7\u822a\u8def1\u6bb5412\u5df718\u5f0411\u865f", "lat": "22.785262", "lon": "121.12943"}, {"title": "\u592a\u9b6f\u95a3\u8607\u897f\u5c0f\u7a7a\u9593\u6c11\u5bbf", "address": "\u82b1\u84ee\u7e23\u65b0\u57ce\u9109\u65b0\u57ce\u6751\u4e2d\u6b63\u8def20\u865f", "lat": "24.1234337", "lon": "121.64826507"}, {"title": "\u714c\u5bb6\u6c11\u5bbf", "address": "\u91d1\u9580\u7e23\u91d1\u6e56\u93ae\u65b0\u6e56\u91cc\u5e02\u6e2f\u8def5\u865f", "lat": "24.43642973", "lon": "118.41011636"}, {"title": "\u9435\u99ac\u9a0e\u8de1", "address": "\u5c4f\u6771\u7e23\u6771\u6e2f\u93ae\u65b0\u5b78\u8def50\u865f", "lat": "22.468034", "lon": "120.457669"}, {"title": "\u4e45\u7aa9\u884c\u65c5-\u9022\u7532\u9928", "address": "\u81fa\u4e2d\u5e02\u897f\u5c6f\u5340\u6587\u83ef\u8def43\u865f(2-5\u6a13)", "lat": "24.177176", "lon": "120.646433"}, {"title": "\u76db\u8588\u98ef\u5e97", "address": "\u9ad8\u96c4\u5e02\u4e09\u6c11\u5340\u5b89\u5be7\u8857387\u865f", "lat": "24.177176", "lon": "120.646433"}, {"title": "\u516c\u9928\u67ff\u5b50\u7d05\u4e86\u6c11\u5bbf", "address": "\u82d7\u6817\u7e23\u516c\u9928\u9109\u798f\u5fb7\u67513\u9130\u798f\u5fb721\u865f", "lat": "24.467416", "lon": "120.84966"}, {"title": "\u6c34\u4e0a\u6c11\u5bbf", "address": "\u82b1\u84ee\u7e23\u82b1\u84ee\u5e02\u570b\u9b42\u91cc\u4e2d\u5c71\u8def525\u5df72\u5f0412\u865f", "lat": "23.98565092", "lon": "121.60185023"}, {"title": "\u7532\u7a69\u6c11\u5bbf", "address": "\u81fa\u6771\u7e23\u81fa\u6771\u5e02\u8208\u76db\u8def313\u5df721\u865f", "lat": "22.791435", "lon": "121.125842"}, {"title": "\u4e5d\u4efd\u672a\u7720\u8005\u82b1\u5712\u6c11\u5bbf", "address": "\u65b0\u5317\u5e02\u745e\u82b3\u5340\u77f3\u57e4\u5df778\u865f", "lat": "25.108245", "lon": "121.842393"}, {"title": "\u9e97\u6566\u7cbe\u7dfb\u65c5\u5e97", "address": "\u81fa\u5317\u5e02\u58eb\u6797\u5340\u798f\u570b\u8def106\u865f1\u6a13,2-6\u6a13\u4e4b1\u81f37", "lat": "25.108245", "lon": "121.842393"}, {"title": "\u7a3b\u6e58\u6751\u6e21\u5047\u6c11\u5bbf", "address": "\u5357\u6295\u7e23\u57d4\u91cc\u93ae\u6843\u7c73\u91cc\u6843\u7c73\u5df79-3\u865f", "lat": "23.940349", "lon": "120.93976"}, {"title": "\u5361\u74e6\u90a3\u5ead\u5712\u6c11\u5bbf", "address": "\u5c4f\u6771\u7e23\u6046\u6625\u93ae\u6a39\u6797\u8def51-6\u865f", "lat": "21.95154", "lon": "120.724648"}, {"title": "\u6d77\u5898\u6c11\u5bbf", "address": "\u5c4f\u6771\u7e23\u7409\u7403\u9109\u4e09\u6c11\u8def28\u865f", "lat": "22.345664", "lon": "120.38793"}, {"title": "\u5c0f\u661f\u661f\u89aa\u5b50\u6c11\u5bbf", "address": "\u65b0\u7af9\u7e23\u6e56\u53e3\u9109\u5fb7\u8208\u8def287\u5df773\u5f048\u865f", "lat": "24.913729", "lon": "121.040934"}, {"title": "\u798f\u6b63\u6c11\u5bbf", "address": "\u9023\u6c5f\u7e23\u8392\u5149\u9109\u798f\u6b63\u675110\u865f", "lat": "25.972186", "lon": "119.930363"}, {"title": "\u6d77\u98a8\u91ce\u68e7\u6c11\u5bbf", "address": "\u6f8e\u6e56\u7e23\u6e56\u897f\u9109\u5357\u5bee\u6751177\u4e4b6\u865f", "lat": "23.58301498", "lon": "119.65278762"}, {"title": "\u5927\u5d59\u6db5\u6cb3\u5cb8\u6c11\u5bbf", "address": "\u6843\u5712\u5e02\u5927\u6eaa\u5340\u6708\u7709\u91cc13\u9130\u6708\u6e56\u8def80\u865f", "lat": "24.890574", "lon": "121.289774"}, {"title": "\u5fb7\u745e\u65c5\u5e97", "address": "\u9ad8\u96c4\u5e02\u5de6\u71df\u5340\u5de6\u71df\u5927\u8def646\u865f", "lat": "22.691291", "lon": "120.297804"}, {"title": "\u904a\u6232\u6c11\u5bbf", "address": "\u9023\u6c5f\u7e23\u6771\u5f15\u9109\u6a02\u83ef\u6751163\u865f", "lat": "26.367488", "lon": "120.484667"}, {"title": "\u5996\u602a\u6751\u4e3b\u984c\u98ef\u5e97", "address": "\u5357\u6295\u7e23\u9e7f\u8c37\u9109\u5167\u6e56\u6751\u8208\u7522\u8def2-3\u865f", "lat": "23.673452", "lon": "120.796386"}, {"title": "\u82b1\u84ee\u5e78\u798f\u6642\u5149\u6c11\u5bbf", "address": "\u82b1\u84ee\u7e23\u5409\u5b89\u9109\u6771\u660c\u675115\u9130\u6771\u91cc\u5341\u4e94\u885741\u4e4b1\u865f", "lat": "23.963375", "lon": "121.598587"}, {"title": "\u76ca\u5927\u5927\u98ef\u5e97", "address": "\u9ad8\u96c4\u5e02\u4e09\u6c11\u5340\u4e5d\u5982\u4e8c\u8def172\u865f", "lat": "22.641049", "lon": "120.308014"}, {"title": "\u767d\u6c99\u6625\u5b63\u6703\u9928\u6c11\u5bbf", "address": "\u5c4f\u6771\u7e23\u6046\u6625\u93ae\u767d\u6c99\u8def28-2\u300128-3\u865f", "lat": "21.936802", "lon": "120.717503"}, {"title": "\u571f\u570d\uff11\uff19\uff12\u6c11\u5bbf", "address": "\u5b9c\u862d\u7e23\u58ef\u570d\u9109\u5927\u798f\u8def\u4e09\u6bb592\u865f", "lat": "24.77669", "lon": "121.785576"}, {"title": "\u91d1\u77f3\u5927\u98ef\u5e97", "address": "\u9ad8\u96c4\u5e02\u65b0\u8208\u5340\u660e\u661f\u885732\u865f", "lat": "22.634001", "lon": "120.30019"}, {"title": "\u82b1\u6f3e\u56db\u5b63\u6c11\u5bbf", "address": "\u82b1\u84ee\u7e23\u82b1\u84ee\u5e02\u570b\u5a01\u91cc\u65b0\u6e2f\u885782\u4e4b3\u865f", "lat": "23.98106927", "lon": "121.6053422"}, {"title": "\u5357\u6295\u5927\u98ef\u5e97", "address": "\u5357\u6295\u7e23\u5357\u6295\u5e02\u4e09\u548c\u4e00\u8def6\u865f", "lat": "23.903163", "lon": "120.690375"}, {"title": "\u7b46\u4ee4\u838a\u5712\u6c11\u5bbf", "address": "\u81fa\u6771\u7e23\u81fa\u6771\u5e02\u5fd7\u822a\u8def1\u6bb5971\u5df779\u865f", "lat": "22.796249", "lon": "121.137036"}, {"title": "\u6676\u83ef\u9152\u5e97", "address": "\u81fa\u5317\u5e02\u4e2d\u5c71\u5340\u4e2d\u5c71\u5317\u8def2\u6bb539\u5df73\u865f", "lat": "25.054133", "lon": "121.524362"}, {"title": "\u5bcc\u5e1d\u5927\u98ef\u5e97", "address": "\u81fa\u4e2d\u5e02\u5357\u5340\u5357\u5c6f\u8def1\u6bb5279\u865f", "lat": "24.134266", "lon": "120.656154"}, {"title": "\u6021\u9759\u6c11\u5bbf", "address": "\u81fa\u6771\u7e23\u81fa\u6771\u5e02\u6771\u7cd6\u885733\u5df76\u5f045\u865f", "lat": "22.76595", "lon": "121.130073"}, {"title": "\u91d1\u74dc\u77f3\u85dd\u68e7\u666f\u89c0\u6e21\u5047\u5225\u5885\u6c11\u5bbf", "address": "\u65b0\u5317\u5e02\u745e\u82b3\u5340\u5c71\u5c16\u8def2\u865f", "lat": "25.115542", "lon": "121.854324"}, {"title": "\u862d\u90a3\u6c7d\u8eca\u65c5\u9928", "address": "\u81fa\u4e2d\u5e02\u5357\u5c6f\u5340\u5927\u58a9\u5357\u8def427\u865f", "lat": "24.134488", "lon": "120.649808"}, {"title": "\u7da0\u5c4b\u6c11\u5bbf", "address": "\u5357\u6295\u7e23\u57d4\u91cc\u93ae\u6843\u7c73\u91cc\u7a2e\u74dc\u8def6\u865f", "lat": "23.94364", "lon": "120.921354"}, {"title": "\u5609\u6960\u98a8\u83ef\u9152\u5e97", "address": "\u5609\u7fa9\u5e02\u897f\u5340\u798f\u5b89\u91cc\u56db\u7dad\u8def232\u865f", "lat": "23.482685", "lon": "120.427527"}, {"title": "\u5fc3\u6709\u6797\u7566", "address": "\u81fa\u4e2d\u5e02\u6771\u52e2\u5340\u4e2d\u5d59\u91cc8\u9130\u6771\u5d0e\u8def\u4e09\u6bb5688\u5df7100\u5f0420\u865f", "lat": "24.268923", "lon": "120.859042"}, {"title": "\u6676\u74bd\u5546\u65c5", "address": "\u81fa\u5317\u5e02\u4fe1\u7fa9\u5340\u4fe1\u7fa9\u8def\u56db\u6bb5468\u865f3-13\u6a13", "lat": "25.032881", "lon": "121.559088"}, {"title": "\u6258\u65af\u5361\u5c3c\u6c11\u5bbf", "address": "\u81fa\u6771\u7e23\u81fa\u6771\u5e02\u8208\u5b89\u8def\u4e00\u6bb5169\u865f", "lat": "22.78904", "lon": "121.127275"}, {"title": "\u671d\u6625\u5c45\u6c11\u5bbf", "address": "\u82b1\u84ee\u7e23\u82b1\u84ee\u5e02\u4e3b\u5b89\u91cc\u69ae\u6b63\u885793\u865f", "lat": "23.97355967", "lon": "121.59753164"}, {"title": "\u5c0f\u7409\u7403\u8239\u5c4b\u7279\u8272\u6c11\u5bbf", "address": "\u5c4f\u6771\u7e23\u7409\u7403\u9109\u4e2d\u5c71\u8def224\u865f", "lat": "22.352172", "lon": "120.382095"}, {"title": "\u5357\u7063\u661f\u68e7", "address": "\u5c4f\u6771\u7e23\u6046\u6625\u93ae\u5357\u7063\u8def\u548c\u5e73\u5df722\u865f", "lat": "21.966773", "lon": "120.758133"}, {"title": "\u4fdd\u8a18\u8336\u5de5\u623f\u6c11\u5bbf", "address": "\u5357\u6295\u7e23\u9e7f\u8c37\u9109\u6e05\u6c34\u6751\u6c38\u8c50\u5df734\u865f", "lat": "23.793132", "lon": "120.782616"}, {"title": "\u84ee\u7de3\u6c11\u5bbf", "address": "\u82b1\u84ee\u7e23\u5409\u5b89\u9109\u5e72\u57ce\u67514\u9130\u5409\u5b89\u8def\u516d\u6bb553\u865f", "lat": "23.949032", "lon": "121.548491"}, {"title": "\u5e0c\u81d8\u98a8\u60c5\u7279\u8272\u6c11\u5bbf", "address": "\u5c4f\u6771\u7e23\u6046\u6625\u93ae\u58be\u4e01\u8def\u6587\u5316\u5df724\u865f", "lat": "21.94431", "lon": "120.799572"}, {"title": "\u6df3\u5883\u666f\u89c0\u4f11\u9592\u5c71\u838a", "address": "\u5357\u6295\u7e23\u4ec1\u611b\u9109\u5927\u540c\u6751\u4ec1\u548c\u8def221-2\u865f", "lat": "21.94431", "lon": "120.799572"}, {"title": "\u7fd4\u5eec\u6e21\u5047\u6c11\u5bbf", "address": "\u82b1\u84ee\u7e23\u79c0\u6797\u9109\u4f73\u6c11\u6751\u4f73\u6c1195-3\u865f", "lat": "24.068411", "lon": "121.167011"}, {"title": "\u963f\u7f8e\u59e8\u6d77\u666f\u6c11\u5bbf", "address": "\u81fa\u6771\u7e23\u6771\u6cb3\u9109\u90fd\u862d\u675143\u9130\u90fd\u862d445-12\u865f", "lat": "22.877159", "lon": "121.234235"}, {"title": "\u9047\u898b\u5feb\u6a02\u6c11\u5bbf", "address": "\u81fa\u6771\u7e23\u81fa\u6771\u5e02\u4e2d\u5fc3\u91cc27\u9130\u65b0\u751f\u8def503\u5df722\u5f0416\u865f", "lat": "22.877159", "lon": "121.234235"}, {"title": "\u661f\u6eff\u61b6\u8db3", "address": "\u5b9c\u862d\u7e23\u7901\u6eaa\u9109\u7389\u5149\u6751\u746a\u50ef\u8def35-16\u865f", "lat": "22.877159", "lon": "121.234235"}, {"title": "\u7389\u87fe\u5712\u6c11\u5bbf", "address": "\u81fa\u6771\u7e23\u6c60\u4e0a\u9109\u9326\u5712\u6751\u65b0\u958b\u5712162\u865f", "lat": "24.792853", "lon": "121.769583"}, {"title": "\u6c34\u6085\u9e97\u7dfb\u6703\u9928", "address": "\u81fa\u4e2d\u5e02\u5927\u91cc\u5340\u6c38\u9686\u91cc\u6c38\u9686\u4e03\u8857137\u865f", "lat": "24.113242", "lon": "120.674959"}, {"title": "\u6708\u840a\u7cbe\u54c1\u65c5\u9928", "address": "\u5f70\u5316\u7e23\u7530\u4e2d\u93ae\u4e2d\u6f6d\u91cc\u54e1\u96c6\u8def\u4e09\u6bb5339\u865f", "lat": "23.8726", "lon": "120.58697"}, {"title": "\u53f0\u4e2d\u65e5\u5149\u6703\u9928", "address": "\u81fa\u4e2d\u5e02\u5317\u5c6f\u5340\u5927\u5751\u91cc\u6771\u5c71\u8def\u4e8c\u6bb5\u5149\u897f\u5df778\u865f", "lat": "24.193873", "lon": "120.748838"}, {"title": "\u5c0f\u68ee\u898b\u6674\u6c11\u5bbf", "address": "\u82b1\u84ee\u7e23\u82b1\u84ee\u5e02\u570b\u806f\u91cc\u570b\u8208\u4e94\u8857102\u865f", "lat": "23.98881743", "lon": "121.60461374"}, {"title": "\u5b8f\u5b9c\u5927\u98ef\u5e97", "address": "\u81fa\u6771\u7e23\u5351\u5357\u9109\u6eab\u6cc9\u6751\u9f8d\u6cc9\u8def57\u865f", "lat": "22.6933095", "lon": "121.0143853"}, {"title": "\u6b23\u5712\u6c7d\u8eca\u65c5\u9928", "address": "\u81fa\u5357\u5e02\u65b0\u71df\u5340\u5609\u82b3\u885715\u865f", "lat": "23.30786809", "lon": "120.285641"}, {"title": "\u516d\u5fc3\u5c45\u6c11\u5bbf", "address": "\u82b1\u84ee\u7e23\u745e\u7a57\u9109\u745e\u7965\u6751\u5357\u5143\u8def310\u865f", "lat": "23.494419", "lon": "121.370373"}, {"title": "\u8776\u6200\u82b1\u65c5\u793e", "address": "\u57fa\u9686\u5e02\u4ec1\u611b\u5340\u5b5d\u4e09\u8def81\u865f3-4\u6a13", "lat": "25.130369", "lon": "121.739245"}, {"title": "\u8cd3\u6210\u7cbe\u54c1\u5546\u65c5", "address": "\u5b9c\u862d\u7e23\u5b9c\u862d\u5e02\u897f\u5f8c\u885726-1\u865f", "lat": "24.757184", "lon": "121.751762"}, {"title": "\u65b0\u683c\u5546\u52d9\u6c7d\u8eca\u98ef\u5e97", "address": "\u82b1\u84ee\u7e23\u82b1\u84ee\u5e02\u4e3b\u5b78\u91cc13\u9130\u4e2d\u6b63\u8def280\u865f", "lat": "23.97314224", "lon": "121.60133804"}, {"title": "\u611b\u6200\u5c71\u6c34\u6642\u5c1a\u6c11\u5bbf", "address": "\u6f8e\u6e56\u7e23\u99ac\u516c\u5e02\u5c71\u6c34\u91cc21\u9130\u73e0\u6c5f151\u4e4b95\u865f", "lat": "23.520154", "lon": "119.592918"}, {"title": "\u8c93\u8ffd\u718a\u6c11\u5bbf", "address": "\u81fa\u6771\u7e23\u81fa\u6771\u5e02\u8c50\u69ae\u8def90\u5df738\u865f", "lat": "22.749601", "lon": "121.138561"}, {"title": "\u6850\u9109\u6c11\u5bbf", "address": "\u82d7\u6817\u7e23\u4e09\u7fa9\u9109\u52dd\u8208\u675125\u9130\u6c34\u7f8e257\u4e4b1\u865f", "lat": "24.399882", "lon": "120.761662"}, {"title": "\u5927\u5009\u4e45\u548c\u5927\u98ef\u5e97", "address": "\u81fa\u5317\u5e02\u4e2d\u5c71\u5340\u5357\u4eac\u6771\u8def1\u6bb59\u865f", "lat": "25.052444", "lon": "121.523306"}, {"title": "\u6d77\u660e\u5a01\u6c11\u5bbf", "address": "\u81fa\u6771\u7e23\u7da0\u5cf6\u9109\u516c\u9928\u6751\u67f4\u53e361-30\u865f", "lat": "25.052444", "lon": "121.523306"}, {"title": "\u706b\u91d1\u59d1\u6c11\u5bbf", "address": "\u5609\u7fa9\u7e23\u7af9\u5d0e\u9109\u5149\u83ef\u6751\u9802\u7b28\u4ed423-9\u865f", "lat": "23.47965835", "lon": "120.6729118"}, {"title": "\u4e09\u6708\u4e09\u6c11\u5bbf", "address": "\u5b9c\u862d\u7e23\u7f85\u6771\u93ae\u6cb3\u6ff1\u8def226\u865f", "lat": "24.69619627", "lon": "121.75462083"}, {"title": "\u6b23\u91c7\u6c11\u5bbf", "address": "\u5609\u7fa9\u7e23\u6885\u5c71\u9109\u592a\u548c\u6751\u6a1f\u6a39\u6e5627\u865f", "lat": "23.522518", "lon": "120.707037"}, {"title": "\u98a8\u83ef\u6e21\u5047\u65c5\u9928", "address": "\u96f2\u6797\u7e23\u864e\u5c3e\u93ae\u5e73\u548c\u91cc\u5e73\u548c20-15\u865f", "lat": "23.704383", "lon": "120.457788"}, {"title": "\u6d77\u65cf\u8ed2\u6c11\u5bbf", "address": "\u5c4f\u6771\u7e23\u6046\u6625\u93ae\u5927\u5149\u8def79\u4e4b15\u865f", "lat": "21.944879", "lon": "120.742743"}, {"title": "\u5c0f\u96c5\u6c11\u5bbf", "address": "\u81fa\u6771\u7e23\u81fa\u6771\u5e02\u66f4\u751f\u8def791\u5df717\u865f", "lat": "22.7687452", "lon": "121.1348269"}, {"title": "\u7ad9\u524d\u7da0\u5730\u6d6a\u6f2b\u57ce\u5821\u6c11\u5bbf", "address": "\u82b1\u84ee\u7e23\u82b1\u84ee\u5e02\u570b\u5f37\u91cc\u8c50\u675136-11\u865f", "lat": "24.00056136", "lon": "121.60178325"}, {"title": "\u7e3d\u7d71\u6c11\u5bbf", "address": "\u82d7\u6817\u7e23\u5357\u5e84\u9109\u7530\u7f8e\u675112\u9130\u7d2b\u91d1\u5c71\u838a93\u865f", "lat": "24.631325", "lon": "121.002508"}, {"title": "\u822a\u9053\u6c11\u5bbf", "address": "\u82b1\u84ee\u7e23\u65b0\u57ce\u9109\u5609\u91cc\u675127\u9130\u5609\u91cc\u4e8c\u8857112\u4e4b1\u865f", "lat": "24.02001", "lon": "121.607895"}, {"title": "\u9e92\u9e9f\u5546\u65c5", "address": "\u81fa\u5317\u5e02\u5357\u6e2f\u5340\u91cd\u967d\u8def59\u865f", "lat": "25.05584", "lon": "121.596802"}, {"title": "\u6211\u7684\u82b1\u5712", "address": "\u82d7\u6817\u7e23\u516c\u9928\u9109\u9928\u5357\u675124\u9130\u9928\u5357293-2\u865f", "lat": "24.487861", "lon": "120.827608"}, {"title": "\u5149\u6f3e\u6636\u54c1\u65c5\u9928", "address": "\u81fa\u5317\u5e02\u5927\u540c\u5340\u91cd\u6176\u5317\u8def1\u6bb51\u865f10\u6a13\u4e4b1", "lat": "25.049552", "lon": "121.513677"}, {"title": "\u5c0f\u963f\u59e8\u7684\u5bb6\u6c11\u5bbf", "address": "\u82b1\u84ee\u7e23\u82b1\u84ee\u5e02\u6c11\u653f\u91cc\u9806\u8208\u8def303\u865f", "lat": "23.99630644", "lon": "121.62254598"}, {"title": "\u8349\u609f\u9053\u6f02\u9ce5\u9752\u5e74\u65c5\u9928", "address": "\u81fa\u4e2d\u5e02\u897f\u5340\u516c\u76ca\u8def201\u865f4~7\u6a13", "lat": "23.99630644", "lon": "121.62254598"}, {"title": "\u5c0f\u8607\u6253\u6c11\u5bbf", "address": "\u5b9c\u862d\u7e23\u51ac\u5c71\u9109\u73cd\u73e0\u6751\u5e78\u798f\u4e8c\u8def8-2\u865f", "lat": "24.650252", "lon": "121.784909"}, {"title": "\u500d\u8482\u96c5\u6c7d\u8eca\u65c5\u8218", "address": "\u81fa\u4e2d\u5e02\u5317\u5c6f\u5340\u6cb3\u5317\u8def3\u6bb5151\u865f", "lat": "24.18059", "lon": "120.683751"}, {"title": "\u5f69\u8679\u7530\u6c11\u5bbf", "address": "\u5357\u6295\u7e23\u96c6\u96c6\u93ae\u516b\u5f35\u91cc\u6c11\u6b0a\u8def268\u865f", "lat": "23.82691", "lon": "120.79214"}, {"title": "\u7d89\u9e97\u65c5\u5e97\u6c11\u5bbf", "address": "\u6f8e\u6e56\u7e23\u99ac\u516c\u5e02\u77f3\u6cc9\u91cc\u77f3\u6cc9133\u865f", "lat": "23.559823", "lon": "119.596733"}, {"title": "\u9ad8\u96c4\u6587\u8cd3\u5927\u98ef\u5e97-\u99c1\u4e8c\u9928", "address": "\u9ad8\u96c4\u5e02\u9e7d\u57d5\u5340\u5927\u52c7\u8def22\u865f1-4\u6a13", "lat": "22.621177", "lon": "120.282803"}, {"title": "\u8afe\u5712\u6c11\u5bbf", "address": "\u81fa\u6771\u7e23\u81fa\u6771\u5e02\u5fd7\u822a\u8def1\u6bb5552\u5df773\u865f", "lat": "22.787462", "lon": "121.132924"}, {"title": "\u5b89\u9038\u65c5\u5e97\u6c11\u5bbf", "address": "\u9023\u6c5f\u7e23\u6771\u5f15\u9109\u6a02\u83ef\u675181\u865f", "lat": "26.367786", "lon": "120.48562"}, {"title": "\u5275\u610f\u6642\u5c1a\u65c5\u5e97", "address": "\u81fa\u4e2d\u5e02\u5317\u5340\u4e94\u6b0a\u8def332\u3001334\u865f1\u81f37\u6a13", "lat": "24.152242", "lon": "120.680283"}, {"title": "\u6a02\u590f\u5929\u6674\u6c11\u5bbf", "address": "\u5c4f\u6771\u7e23\u6046\u6625\u93ae\u767d\u6c99\u8def13-4\u865f", "lat": "21.935211", "lon": "120.720592"}, {"title": "\u5bcc\u8c6a\u570b\u969b\u5927\u98ef\u5e97", "address": "\u81fa\u4e2d\u5e02\u5317\u5340\u4e94\u6b0a\u8def317\u865f6-12\u6a13", "lat": "24.152029", "lon": "120.678757"}, {"title": "\u6b50\u904a\u570b\u969b\u7cbe\u54c1\u65c5\u9928(\u53f0\u4e2d\u9928)", "address": "\u81fa\u4e2d\u5e02\u5357\u5c6f\u5340\u6587\u5fc3\u5357\u8def98\u865f", "lat": "24.134892", "lon": "120.646756"}, {"title": "\u53f0\u7063\u71e6\u8def\u90fd\u98ef\u5e97", "address": "\u81fa\u5317\u5e02\u4e2d\u5c71\u5340\u6c11\u6b0a\u6771\u8def\u4e00\u6bb59\u865f2-10\u6a13", "lat": "25.062983", "lon": "121.523323"}, {"title": "\u85cd\u5929\u9e97\u6c60\u98ef\u5e97\u4e8c\u9928", "address": "\u82b1\u84ee\u7e23\u82b1\u84ee\u5e02\u6c11\u751f\u91cc10\u9130\u4e09\u6c11\u885728\u865f", "lat": "23.97870072", "lon": "121.61024204"}, {"title": "\u5929\u74bd\u5546\u52d9\u98ef\u5e97", "address": "\u82b1\u84ee\u7e23\u82b1\u84ee\u5e02\u570b\u98a8\u91cc5\u9130\u6797\u68ee\u8def126\u865f", "lat": "23.97752087", "lon": "121.59987713"}, {"title": "\u4e39\u5824\u91d1\u5d19\u6eab\u6cc9\u6c11\u5bbf", "address": "\u81fa\u6771\u7e23\u592a\u9ebb\u91cc\u9109\u591a\u826f\u6751\u591a\u826f2-2\u865f", "lat": "22.5267307", "lon": "120.9383152"}, {"title": "\u53f0\u5317\u516d\u798f\u842c\u6021\u9152\u5e97", "address": "\u81fa\u5317\u5e02\u5357\u6e2f\u5340\u5fe0\u5b5d\u6771\u8def\u4e03\u6bb5359\u865f7-30\u6a13", "lat": "25.052526", "lon": "121.606015"}, {"title": "\u5317\u6d77\u8cd3\u9928", "address": "\u81fa\u5357\u5e02\u5317\u5340\u5927\u8208\u8857325\u5df733\u865f5\u6a13", "lat": "23.009593", "lon": "120.186681"}, {"title": "\u6625\u57ce\u6c7d\u8eca\u65c5\u9928", "address": "\u65b0\u7af9\u7e23\u65b0\u8c50\u9109\u4e2d\u8208\u8def176\u865f", "lat": "24.876182", "lon": "120.995934"}, {"title": "\u6708\u6a58\u6c11\u5bbf", "address": "\u6f8e\u6e56\u7e23\u99ac\u516c\u5e02\u4e94\u5fb7\u91cc1\u9130\u96de\u6bcd\u5862185\u865f", "lat": "23.524859", "lon": "119.591543"}, {"title": "\u7f85\u6771\u7530\u7530\u5708\u6c11\u5bbf", "address": "\u5b9c\u862d\u7e23\u7f85\u6771\u93ae\u7af9\u6797\u8857423\u865f", "lat": "24.68745299", "lon": "121.7545079"}, {"title": "\u99ac\u5fb7\u91cc\u7d93\u5178\u65c5\u9928", "address": "\u65b0\u7af9\u5e02\u9999\u5c71\u5340\u4e2d\u83ef\u8def\u56db\u6bb5729\u865f", "lat": "24.788328", "lon": "120.929273"}, {"title": "\u5fae\u5fae\u98a8\u6c11\u5bbf", "address": "\u82d7\u6817\u7e23\u4e09\u7fa9\u9109\u5ee3\u76db\u675141\u9130\u516b\u80a1\u8def\u9928\u524d7\u5df71-1\u865f", "lat": "24.405626", "lon": "120.763469"}, {"title": "\u91d1\u7518\u4e39\u6c11\u5bbf", "address": "\u5c4f\u6771\u7e23\u7409\u7403\u9109\u4e2d\u5c71\u8def112-2\u865f", "lat": "22.351234", "lon": "120.381281"}, {"title": "\u661f\u8c61\u5546\u65c5", "address": "\u81fa\u5357\u5e02\u4e2d\u897f\u5340\u6d77\u5b89\u8def1\u6bb5151\u865f1-7\u6a13", "lat": "22.99134046", "lon": "120.19534909"}, {"title": "\u6d77\u5b89\u2027\u8f49\u89d2\u6c11\u5bbf", "address": "\u81fa\u5357\u5e02\u4e2d\u897f\u5340\u6b63\u5fb7\u885720\u5df712\u865f", "lat": "22.993857", "lon": "120.195704"}, {"title": "\u8015\u83d3\u5712\u6c11\u5bbf", "address": "\u82b1\u84ee\u7e23\u65b0\u57ce\u9109\u4f73\u6797\u6751\u4f73\u6797112\u4e4b6\u865f", "lat": "24.032798", "lon": "121.596344"}, {"title": "\u70ba\u6953\u6e21\u5047\u5225\u9928", "address": "\u81fa\u5357\u5e02\u5357\u5340\u7063\u88e1\u8def62\u5df72\u865f1-2\u6a13", "lat": "22.933796", "lon": "120.179449"}, {"title": "\u83c1\u83ef\u6cb3\u7554\u6c11\u5bbf", "address": "\u82b1\u84ee\u7e23\u82b1\u84ee\u5e02\u6c11\u6b0a\u91cc\u83c1\u83ef\u885735\u5df71\u5f0418\u865f", "lat": "23.9810676", "lon": "121.61541335"}, {"title": "\u798f\u7f8e\u6c11\u5bbf", "address": "\u81fa\u6771\u7e23\u81fa\u6771\u5e02\u7cbe\u8aa0\u8def241\u865f", "lat": "22.7528605", "lon": "121.1558313"}, {"title": "\u7d05\u7159\u56ea\u6c11\u5bbf", "address": "\u5b9c\u862d\u7e23\u7f85\u6771\u93ae\u6cb3\u6ff1\u8def23\u5df75\u5f046\u865f", "lat": "24.688025", "lon": "121.753891"}, {"title": "\u5fae\u98a8\u6829\u6829", "address": "\u81fa\u5357\u5e02\u7389\u4e95\u5340\u4e2d\u6b63\u91cc16\u9130\u7389\u5b89\u885763\u865f", "lat": "23.12777409", "lon": "120.463836"}, {"title": "\u4f0a\u8c46\u82b1\u5712\u6c11\u5bbf", "address": "\u81fa\u6771\u7e23\u81fa\u6771\u5e02\u6a02\u5229\u8def46\u865f", "lat": "22.797582", "lon": "121.128104"}, {"title": "\u80cc\u5305\u76e3\u7344\u6c11\u5bbf", "address": "\u81fa\u6771\u7e23\u6771\u6cb3\u9109\u90fd\u862d\u6751225-6\u865f", "lat": "22.96902594", "lon": "121.30287263"}, {"title": "\u5fae\u5149\u6d77\u5cb8\u6c11\u5bbf", "address": "\u5c4f\u6771\u7e23\u6046\u6625\u93ae\u8239\u5e06\u8def936\u865f", "lat": "21.936901", "lon": "120.819821"}, {"title": "\u7f85\u6771\u5922\u884c\u9928", "address": "\u5b9c\u862d\u7e23\u7f85\u6771\u93ae\u897f\u5b89\u8857171\u865f", "lat": "24.669153", "lon": "121.759416"}, {"title": "\u98db\u8679\u6c11\u5bbf", "address": "\u5b9c\u862d\u7e23\u7901\u6eaa\u9109\u5fb7\u967d\u6751\u5947\u7acb\u4e39\u8def107\u4e4b12\u865f", "lat": "24.82005702", "lon": "121.78266889"}, {"title": "\u98a8\u4fe1\u5b50\u5546\u52d9\u65c5\u9928", "address": "\u96f2\u6797\u7e23\u6597\u516d\u5e02\u6c11\u751f\u8def170\u865f5-7\u6a13", "lat": "23.711767", "lon": "120.542281"}, {"title": "\u8cd3\u738b\u5927\u98ef\u5e97", "address": "\u81fa\u5317\u5e02\u5927\u540c\u5340\u5357\u4eac\u897f\u8def163\u865f3-4\u6a13", "lat": "25.054104", "lon": "121.513162"}, {"title": "\u677e\u9716\u6e21\u5047\u8fb2\u838a", "address": "\u5b9c\u862d\u7e23\u51ac\u5c71\u9109\u4e2d\u5c71\u6751\u4e2d\u5c71\u4e03\u8def58\u865f", "lat": "24.625528", "lon": "121.728319"}, {"title": "\u5409\u5b89\u7b20\u5712\u6c11\u5bbf", "address": "\u82b1\u84ee\u7e23\u5409\u5b89\u9109\u5409\u5b89\u6751\u5409\u8208\u4e00\u8857323\u865f", "lat": "23.9716781", "lon": "121.57577367"}, {"title": "\u6a02\u6a02\u6c11\u5bbf", "address": "\u81fa\u6771\u7e23\u81fa\u6771\u5e02\u4e2d\u8208\u8def2\u6bb580\u865f", "lat": "22.766693", "lon": "121.130917"}, {"title": "\u6f22\u4f86\u5927\u98ef\u5e97", "address": "\u9ad8\u96c4\u5e02\u524d\u91d1\u5340\u6210\u529f\u4e00\u8def266\u865f1\u6a13\u30012\u6a13\u300110-13\u6a13\u300115-19\u6a13\u300122-42\u6a13", "lat": "22.619339", "lon": "120.2961"}, {"title": "\u70cf\u77f3\u6e2f\u5317\u5824\u6c11\u5bbf", "address": "\u5b9c\u862d\u7e23\u982d\u57ce\u93ae\u6e2f\u53e3\u91cc\u6e2f\u53e3\u8def103\u865f", "lat": "24.874962", "lon": "121.839879"}, {"title": "\u5370\u8c61\u5317\u7586\u6c11\u5bbf", "address": "\u9023\u6c5f\u7e23\u6771\u5f15\u9109\u6a02\u83ef\u6751126\u865f", "lat": "26.370177", "lon": "120.491444"}, {"title": "\u6696\u967d\u6d0b\u6c11\u5bbf", "address": "\u5c4f\u6771\u7e23\u6046\u6625\u93ae\u6046\u5357\u8def194\u5df760\u865f", "lat": "22.00386195", "lon": "120.74726646"}, {"title": "\u7da0\u91ce\u68ee\u6797\u6c11\u5bbf", "address": "\u82b1\u84ee\u7e23\u5149\u5fa9\u9109\u5927\u5e73\u6751\u4f5b\u7956\u8857336\u5df720\u865f", "lat": "23.67350014", "lon": "121.4407076"}, {"title": "\u9b54\u6cd5\u5976\u6cb9\u98db\u6c11\u5bbf", "address": "\u81fa\u6771\u7e23\u81fa\u6771\u5e02\u65b0\u7ad9\u4e8c\u885727\u865f", "lat": "23.67350014", "lon": "121.4407076"}, {"title": "\u68ee\u6797\u516c\u5712\u6c11\u5bbf", "address": "\u5b9c\u862d\u7e23\u51ac\u5c71\u9109\u5e78\u798f\u4e8c\u8def8\u4e4b1\u865f", "lat": "24.650279", "lon": "121.784846"}, {"title": "\u548c\u96c5\u6e21\u5047\u5712\u5340", "address": "\u5357\u6295\u7e23\u9e7f\u8c37\u9109\u548c\u96c5\u6751\u611b\u9109\u8def66-15\u865f", "lat": "23.711011", "lon": "120.776383"}, {"title": "\u8a60\u7f8e\u6703\u9928", "address": "\u5c4f\u6771\u7e23\u6046\u6625\u93ae\u4e09\u6e9d\u8def\u9ea5\u706b\u7530\u5df762\u865f", "lat": "22.021322", "lon": "120.721767"}, {"title": "\u666e\u62c9\u591a\u5c71\u4e18\u5047\u671f", "address": "\u6843\u5712\u5e02\u5fa9\u8208\u5340\u4e09\u6c11\u6751\u6c34\u7ba1\u982d23-1\u865f", "lat": "24.826295", "lon": "121.34784"}, {"title": "\u9999\u5948\u723e\u6c7d\u8eca\u65c5\u9928 (\u65b0\u838a\u5e97)", "address": "\u65b0\u5317\u5e02\u65b0\u838a\u5340\u5f8c\u6e2f\u4e00\u8def187\u865f", "lat": "25.028572", "lon": "121.433675"}, {"title": "M\u5bbf\u82b1\u5712\u6c7d\u65c5", "address": "\u81fa\u5357\u5e02\u5b89\u5357\u5340\u79d1\u6280\u516c\u5712\u5927\u905330\u865f", "lat": "23.041596", "lon": "120.143431"}, {"title": "\u4e0a\u6797\u5712\u751f\u614b\u6c11\u5bbf", "address": "\u5357\u6295\u7e23\u57d4\u91cc\u93ae\u5411\u5584\u91cc\u5411\u55841\u5df733\u865f", "lat": "23.998868", "lon": "120.9224"}, {"title": "\u8dcb\u908a\u6c11\u5bbf", "address": "\u81fa\u6771\u7e23\u6210\u529f\u93ae\u548c\u5e73\u91cc7\u9130\u8dcb\u908a\u8def47\u865f", "lat": "23.0763094", "lon": "121.3501307"}, {"title": "\u6a39\u4e4b\u5c4b\u6c11\u5bbf", "address": "\u5b9c\u862d\u7e23\u4e94\u7d50\u9109\u798f\u548c\u4e8c\u8def118\u5df768\u865f", "lat": "24.677617", "lon": "121.79747"}, {"title": "\u5929\u9686\u5927\u98ef\u5e97", "address": "\u5b9c\u862d\u7e23\u7901\u6eaa\u9109\u7901\u6eaa\u8def\u4e94\u6bb5121\u865f", "lat": "24.829397", "lon": "121.776445"}, {"title": "\u592a\u9b6f\u95a3\u6703\u9928\u6c11\u5bbf", "address": "\u82b1\u84ee\u7e23\u65b0\u57ce\u9109\u65b0\u57ce\u6751\u65b0\u8208\u4e00\u8def6\u865f", "lat": "24.829397", "lon": "121.776445"}, {"title": "\u559c\u6b61\u8fb2\u838a\u6c11\u5bbf", "address": "\u82b1\u84ee\u7e23\u5409\u5b89\u9109\u7a3b\u9999\u675125\u9130\u5ee3\u8ce2\u8def\u4e00\u6bb5219\u865f", "lat": "23.95724543", "lon": "121.58031294"}, {"title": "\u65c5\u4eba\u9a5b\u7ad9\u9435\u82b1\u6587\u5275\u4e8c\u9928", "address": "\u81fa\u6771\u7e23\u81fa\u6771\u5e02\u9435\u82b1\u8def296\u865f", "lat": "22.7515442", "lon": "121.1482412"}, {"title": "\u6c34\u6708\u661f\u8cde", "address": "\u5b9c\u862d\u7e23\u51ac\u5c71\u9109\u6c38\u8208\u8def\u4e00\u6bb5162\u5df726\u865f", "lat": "24.656495", "lon": "121.772222"}, {"title": "\u65b0\u9a5b\u65c5\u5e97\u897f\u9580\u6377\u904b\u5e97", "address": "\u81fa\u5317\u5e02\u4e2d\u6b63\u5340\u8861\u967d\u8def124\u865f1-7\u6a13,\u5bf6\u6176\u8def63\u865f", "lat": "24.656495", "lon": "121.772222"}, {"title": "\u5b89\u5e73\u65c5\u884c\u2027\u5bb6", "address": "\u81fa\u5357\u5e02\u5b89\u5e73\u5340\u91d1\u57ce\u91cc15\u9130\u5dde\u5e73\u4e8c\u88578\u865f", "lat": "22.99628", "lon": "120.151666"}, {"title": "\u68ee\u4e4b\u5c4b\u6c11\u5bbf", "address": "\u5357\u6295\u7e23\u57d4\u91cc\u93ae\u6843\u7c73\u91cc\u6843\u7c73\u5df75-5\u865f", "lat": "23.940283", "lon": "120.941536"}, {"title": "\u7d05\u8336\u5de5\u623f", "address": "\u5357\u6295\u7e23\u9b5a\u6c60\u9109\u5927\u96c1\u6751\u5927\u96c1\u5df739-7\u865f", "lat": "23.92321", "lon": "120.917618"}, {"title": "\u5c45\u4f73\u5c0f\u68e7", "address": "\u81fa\u6771\u7e23\u95dc\u5c71\u93ae\u91cc\u58e0\u91cc\u4e2d\u5c71\u8def73\u865f", "lat": "23.04751432", "lon": "121.16307544"}, {"title": "\u57ce\u5e02\u5546\u65c5-\u53f0\u5317\u5357\u6771\u9928", "address": "\u81fa\u5317\u5e02\u677e\u5c71\u5340\u5357\u4eac\u6771\u8def\u4e94\u6bb5411\u865f1\u81f37\u6a13", "lat": "25.051506", "lon": "121.570029"}, {"title": "\u9dfa\u9732\u8336\u5c45\u6c11\u5bbf", "address": "\u5609\u7fa9\u7e23\u6885\u5c71\u9109\u592a\u8208\u67517\u9130\u6eaa\u982d28\u4e4b1\u865f", "lat": "23.549453", "lon": "120.634788"}, {"title": "\u6625\u4e0a\u6751\u5885\u6c11\u5bbf", "address": "\u6f8e\u6e56\u7e23\u99ac\u516c\u5e02\u897f\u885b\u91cc25\u9130\u897f\u885b373\u865f", "lat": "23.587229", "lon": "119.581097"}, {"title": "\u9727\u6afb\u5927\u98ef\u5e97 (\u4f4d\u65bc\u9727\u793e)", "address": "\u5357\u6295\u7e23\u4ec1\u611b\u9109\u5927\u540c\u6751\u4ec1\u548c\u8def71\u865f", "lat": "24.022628", "lon": "121.132027"}, {"title": "\u6d04\u703e\u7aa9\u9752\u5e74\u65c5\u820d", "address": "\u82b1\u84ee\u7e23\u82b1\u84ee\u5e02\u570b\u806f\u91cc24\u9130\u570b\u806f\u4e00\u8def83\u865f(2\u81f39\u6a13)", "lat": "23.99169097", "lon": "121.60304744"}, {"title": "\u7dfb\u9e97\u4f2f\u7235\u9152\u5e97", "address": "\u96f2\u6797\u7e23\u6597\u516d\u5e02\u4e2d\u5c71\u8def6\u865f", "lat": "23.710669", "lon": "120.542541"}, {"title": "\u99a5\u83ef\u98ef\u5e97", "address": "\u65b0\u5317\u5e02\u677f\u6a4b\u5340\u6c11\u751f\u8def2\u6bb5251\u865f1\u6a13\u53ca3\u81f312\u6a13", "lat": "25.02224", "lon": "121.468062"}, {"title": "\u798f\u6cf0\u5546\u52d9\u98ef\u5e97", "address": "\u65b0\u7af9\u5e02\u6771\u5340\u4e2d\u592e\u8def106\u865fB2,1\u6a13,8-15\u6a13", "lat": "25.02224", "lon": "121.468062"}, {"title": "\u677e\u820d\u6c11\u5bbf", "address": "\u5b9c\u862d\u7e23\u51ac\u5c71\u9109\u5f97\u5b89\u6751\u9e7f\u5f97\u4e8c\u8def222\u865f", "lat": "24.655333", "lon": "121.734612"}, {"title": "\u5e78\u798f\u6c11\u5bbf", "address": "\u65b0\u5317\u5e02\u96d9\u6eaa\u5340\u592a\u5e73\u8def77\u865f", "lat": "25.03602456", "lon": "121.86513186"}, {"title": "\u5b89\u5e731923\u6c11\u5bbf", "address": "\u81fa\u5357\u5e02\u5b89\u5e73\u5340\u4e16\u5e73\u8def19\u865f", "lat": "22.995382", "lon": "120.150303"}, {"title": "\u53f0\u5317\u541b\u54c1\u5927\u9152\u5e97", "address": "\u81fa\u5317\u5e02\u5927\u540c\u5340\u627f\u5fb7\u8def1\u6bb53\u865f(1\u6a13.5\u6a13~16\u6a13\u53ca\u5730\u4e0b1\u6a13.\u5730\u4e0b3\u6a13)", "lat": "25.049368", "lon": "121.517109"}, {"title": "\u7c73\u4fee\uff22\uff06\uff22", "address": "\u5b9c\u862d\u7e23\u51ac\u5c71\u9109\u67ef\u6797\u6751\u5149\u83ef\u4e00\u8def415\u865f", "lat": "24.68407232", "lon": "121.72811142"}, {"title": "\u58be\u4e01\u98a8\u91c7\u6c11\u5bbf", "address": "\u5c4f\u6771\u7e23\u6046\u6625\u93ae\u58be\u4e01\u8def\u4f5b\u5149\u5df716-1\u865f", "lat": "21.945798", "lon": "120.798661"}, {"title": "\u9e7f\u904a\u4eba\u6587\u6c11\u5bbf", "address": "\u5f70\u5316\u7e23\u9e7f\u6e2f\u93ae\u8857\u5c3e\u91cc\u6587\u660e\u885726\u53ca28\u865f", "lat": "24.048602", "lon": "120.43615"}, {"title": "\u4e5d\u4efd\u5c71\u57ce\u5c71\u6d77\u7063\u6c11\u5bbf", "address": "\u65b0\u5317\u5e02\u745e\u82b3\u5340\u8857\u9802\u5df722\u865f", "lat": "25.107734", "lon": "121.8451"}, {"title": "\u8ad6\u60c5\u6c7d\u8eca\u65c5\u9928", "address": "\u81fa\u4e2d\u5e02\u5317\u5340\u6587\u660c\u6771\u4e09\u88572-8\u865f", "lat": "24.167724", "lon": "120.680186"}, {"title": "\u5bcc\u7fd4\u5927\u98ef\u5e97", "address": "\u5b9c\u862d\u7e23\u5b9c\u862d\u5e02\u6821\u820d\u8def19\u865f", "lat": "24.751537", "lon": "121.763165"}, {"title": "\u6771\u5f15\u6d77\u89d2\u6c11\u5bbf\u4e8c\u9928", "address": "\u9023\u6c5f\u7e23\u6771\u5f15\u9109\u4e2d\u67f3\u6751138\u865f", "lat": "26.377683", "lon": "120.476187"}, {"title": "\u827e\u7c73\u65c5\u5e97", "address": "\u81fa\u5317\u5e02\u4e2d\u5c71\u5340\u4e2d\u5c71\u5317\u8def\u4e8c\u6bb565\u5df72\u5f043\u865f1-4\u6a13", "lat": "25.056766", "lon": "121.52382"}, {"title": "\u9054\u89c0\u8fb2\u5834", "address": "\u6843\u5712\u5e02\u5fa9\u8208\u5340\u83ef\u9675\u6751 11\u9130\u5df4\u5d1a189\u865f", "lat": "24.692406", "lon": "121.405389"}, {"title": "\u91d1\u5f18\u65c5\u793e", "address": "\u81fa\u5317\u5e02\u5927\u540c\u5340\u5357\u4eac\u897f\u8def316\u865f4\u6a13", "lat": "25.053902", "lon": "121.512938"}, {"title": "\uff26\uff11\u6c11\u5bbf", "address": "\u5b9c\u862d\u7e23\u4e94\u7d50\u9109\u516c\u5712\u4e09\u8def107\u865f", "lat": "24.67886206", "lon": "121.80765896"}, {"title": "\u8b1d\u8001\u7239\u6c11\u5bbf", "address": "\u6f8e\u6e56\u7e23\u99ac\u516c\u5e02\u70cf\u5d01\u91cc1\u9130\u70cf\u5d01132\u4e4b1\u865f", "lat": "23.548294", "lon": "119.616567"}, {"title": "\u7d05\u74e6\u539d\u5c71\u5c45\u6c11\u5bbf", "address": "\u5357\u6295\u7e23\u57d4\u91cc\u93ae\u6843\u7c73\u91cc\u7a2e\u74dc\u8def52\u865f", "lat": "23.947257", "lon": "120.905172"}, {"title": "\u6771\u65b9\u6c34\u6f3e\u6c11\u5bbf", "address": "\u5b9c\u862d\u7e23\u7901\u6eaa\u9109\u767d\u96f2\u6751\u4efd\u5c3e\u4e00\u8def7\u865f", "lat": "24.83297118", "lon": "121.78610791"}, {"title": "\u6cc9\u6708\u6a13", "address": "\u5b9c\u862d\u7e23\u51ac\u5c71\u9109\u8304\u82f3\u8def217\u865f", "lat": "24.65722089", "lon": "121.80499308"}, {"title": "\u90c1\u91c7\u6642\u5c1a\u6c7d\u8eca\u65c5\u9928", "address": "\u5f70\u5316\u7e23\u54e1\u6797\u5e02\u54e1\u9e7f\u8def245\u5df758\u865f", "lat": "23.9550018", "lon": "120.5635911"}, {"title": "\u65c5\u6e2f\u6c7d\u8eca\u65c5\u9928", "address": "\u9ad8\u96c4\u5e02\u5c0f\u6e2f\u5340\u5b8f\u5e73\u8def93\u865f", "lat": "22.570342", "lon": "120.36263"}, {"title": "\u5fae\u7b1158\u6c11\u5bbf", "address": "\u5357\u6295\u7e23\u57d4\u91cc\u93ae\u6c34\u982d\u91cc5\u9130\u8208\u9686\u5df758\u865f", "lat": "23.954452", "lon": "120.976332"}, {"title": "\u8587\u7c73\u6587\u65c5", "address": "\u5c4f\u6771\u7e23\u5c4f\u6771\u5e02\u5fa9\u8208\u8def25\u865f9\u6a13\u4e4b1\u81f3\u4e4b32\u300110\u6a13\u4e4b1\u81f3\u4e4b32", "lat": "22.669255", "lon": "120.48972"}, {"title": "\u590f\u8c54\u4f11\u9592\u6c11\u5bbf", "address": "\u5c4f\u6771\u7e23\u6046\u6625\u93ae\u6046\u5357\u8def117\u5df752\u865f", "lat": "22.00386195", "lon": "120.74726646"}, {"title": "\u6797\u5bb6\u8336\u5712\u6c11\u5bbf", "address": "\u82b1\u84ee\u7e23\u745e\u7a57\u9109\u821e\u9db4\u6751\u821e\u9db474-8\u865f", "lat": "23.49666202", "lon": "121.37582277"}, {"title": "\u6a02\u6d3b97\u6c11\u5bbf", "address": "\u82b1\u84ee\u7e23\u82b1\u84ee\u5e02\u570b\u76db\u91cc\u570b\u76db\u516b\u885797\u865f", "lat": "23.99607261", "lon": "121.606534"}, {"title": "\u6709\u670b\u6703\u9928", "address": "\u5b9c\u862d\u7e23\u7901\u6eaa\u9109\u4e8c\u7d50\u6751\u4e8c\u7d50\u8def36-11\u865f", "lat": "24.78414511", "lon": "121.70059245"}, {"title": "\u98a8\u6e05\u96c5\u7b51\u6c11\u5bbf", "address": "\u5b9c\u862d\u7e23\u4e94\u7d50\u9109\u516c\u5712\u8def136\u865f", "lat": "24.68061112", "lon": "121.81138889"}, {"title": "\u54c8\u5bc6\u74dc\u6c7d\u8eca\u65c5\u9928\u2500\u4e2d\u58e2\u9928", "address": "\u6843\u5712\u5e02\u5e73\u93ae\u5340\u9ad8\u96d9\u8def30\u865f", "lat": "24.957353", "lon": "121.190485"}, {"title": "\u6587\u5c71\u8cd3\u9928", "address": "\u5609\u7fa9\u7e23\u963f\u91cc\u5c71\u9109\u4e2d\u6b63\u6751\u6771\u963f\u91cc\u5c7140\u865f", "lat": "23.512399", "lon": "120.804451"}, {"title": "\u6a02\u5ba2\u4f86\u6c11\u5bbf", "address": "\u82b1\u84ee\u7e23\u5409\u5b89\u9109\u4ec1\u548c\u6751\u4e2d\u6b63\u8def\u4e8c\u6bb5186\u5df727\u865f", "lat": "23.959168", "lon": "121.585201"}, {"title": "\u6642\u5149\u7ae5\u8a71\u6c11\u5bbf", "address": "\u82b1\u84ee\u7e23\u82b1\u84ee\u5e02\u4e2d\u6b63\u8def403\u865f", "lat": "23.97489296", "lon": "121.60350794"}, {"title": "\u7687\u661f\u6c7d\u8eca\u65c5\u9928", "address": "\u5c4f\u6771\u7e23\u5c4f\u6771\u5e02\u6c11\u751f\u6771\u8def59-1\u865f", "lat": "22.659273", "lon": "120.510778"}, {"title": "\u963f\u7f85\u570b\u969b\u65c5\u9928", "address": "\u81fa\u5317\u5e02\u4e2d\u6b63\u5340\u5fe0\u5b5d\u897f\u8def\u4e00\u6bb550\u865f22\u6a13-2,-4,-6", "lat": "22.659273", "lon": "120.510778"}, {"title": "\u6735\u6735\u5c0f\u8a9e", "address": "\u5b9c\u862d\u7e23\u4e94\u7d50\u9109\u50b3\u85dd\u8def\u4e00\u6bb5379\u5df725\u5f041\u865f", "lat": "24.68041", "lon": "121.808696"}, {"title": "\u5c71\u4ed4\u8173\u6c11\u5bbf", "address": "\u81fa\u6771\u7e23\u7da0\u5cf6\u9109\u4e2d\u5bee\u67515\u9130115-1\u865f", "lat": "22.66924173", "lon": "121.46827735"}, {"title": "\u4f0a\u6200\u6c7d\u8eca\u65c5\u9928", "address": "\u81fa\u4e2d\u5e02\u6e05\u6c34\u5340\u6e2f\u57e0\u8def\u4e09\u6bb5350\u865f", "lat": "24.268964", "lon": "120.544781"}, {"title": "\u5192\u7159\u7684\u55ac\u5c31\u662f\u516c\u5bd3\u65c5\u5e97", "address": "\u9ad8\u96c4\u5e02\u9e7d\u57d5\u5340\u4e94\u798f\u56db\u8def91\u865f2\u81f35\u6a13", "lat": "22.622323", "lon": "120.28569"}, {"title": "\u6e05\u5883\u590f\u90fd\u5922\u5e7b\u5c71\u6797\u6e21\u5047\u5c71\u838a", "address": "\u5357\u6295\u7e23\u4ec1\u611b\u9109\u5927\u540c\u6751\u5b9a\u9060\u65b0\u675132\u865f", "lat": "24.02136887", "lon": "121.13232739"}, {"title": "\u53f0\u5317\u4e16\u806f\u5546\u65c5", "address": "\u81fa\u5317\u5e02\u4e2d\u5c71\u5340\u677e\u6c5f\u8def90\u5df75\u865f1\u81f37\u6a13", "lat": "25.050626", "lon": "121.531903"}, {"title": "\u6c83\u5ba2\u4f3d\u6d32\u65c5\u793e", "address": "\u65b0\u5317\u5e02\u4e09\u91cd\u5340\u6210\u529f\u8def97\u865f8\u81f39\u6a13", "lat": "25.051632", "lon": "121.488077"}, {"title": "\u897f\u83ef\u5927\u98ef\u5e97", "address": "\u81fa\u5317\u5e02\u677e\u5c71\u5340\u6c11\u751f\u6771\u8def3\u6bb5111\u865f", "lat": "25.058046", "lon": "121.545799"}, {"title": "\u91cc\u4e9e\u884c\u65c5", "address": "\u5609\u7fa9\u5e02\u897f\u5340\u66f8\u9662\u91cc\u6c38\u548c\u8857100\u865fB1\u81f37\u5c64\u6a13", "lat": "23.475772", "lon": "120.440119"}, {"title": "\u6771\u7c6c\u7de3\u6c11\u5bbf", "address": "\u81fa\u6771\u7e23\u95dc\u5c71\u93ae\u65b0\u798f\u91cc6\u913029\u865f", "lat": "23.0458993", "lon": "121.1576863"}, {"title": "\u751c\u871c\u5bb6101", "address": "\u82b1\u84ee\u7e23\u5149\u5fa9\u9109\u5927\u5e73\u67516\u9130\u81ea\u5f37\u8def101\u865f", "lat": "23.670935", "lon": "121.430843"}, {"title": "\u9999\u9b5a\u4e4b\u5bb6", "address": "\u5b9c\u862d\u7e23\u4e09\u661f\u9109\u5927\u7fa9\u6751\u4e94\u5206\u8def\u4e09\u6bb5433\u5df711\u865f", "lat": "24.68336113", "lon": "121.70025"}, {"title": "\u77e5\u672c\u91d1\u806f\u4e16\u7d00\u9152\u5e97", "address": "\u81fa\u6771\u7e23\u5351\u5357\u9109\u9f8d\u6cc9\u8def30\u865f", "lat": "22.6924025", "lon": "121.0198751"}, {"title": "\u8292\u679c\u65c5\u5e97", "address": "\u82b1\u84ee\u7e23\u82b1\u84ee\u5e02\u4e3b\u5546\u91cc4\u9130\u5149\u5fa9\u885745\u865f", "lat": "23.97649927", "lon": "121.60766937"}, {"title": "\u6c34\u982d\u4eba\u5bb6", "address": "\u82d7\u6817\u7e23\u5927\u6e56\u9109\u5927\u5bee\u675110\u9130\u6c34\u982d\u5bee14\u4e4b8\u865f", "lat": "24.408358", "lon": "120.868982"}, {"title": "ohana\u7684\u5929\u7a7a\u6c11\u5bbf", "address": "\u81fa\u6771\u7e23\u81fa\u6771\u5e02\u6a02\u5229\u8def2-2\u865f", "lat": "22.797742", "lon": "121.124181"}, {"title": "\u8c93\u982d\u9df9\u68ee\u6797(\u7279\u8272\u6c11\u5bbf)", "address": "\u5357\u6295\u7e23\u7af9\u5c71\u93ae\u5c71\u5d07\u91cc\u5c71\u5d07\u5df727-7\u865f", "lat": "23.800302", "lon": "120.718265"}, {"title": "\u5de7\u5408\u5927\u98ef\u5e97", "address": "\u81fa\u4e2d\u5e02\u4e2d\u5340\u5efa\u570b\u8def163\u865f", "lat": "24.138257", "lon": "120.685184"}, {"title": "\u4e2d\u6b23\u98ef\u5e97", "address": "\u81fa\u4e2d\u5e02\u4e2d\u5340\u5efa\u570b\u8def180\u865f", "lat": "24.137815", "lon": "120.68545"}, {"title": "\u6771\u65b9\u660e\u73e0\u7db2\u8def\u6c11\u5bbf", "address": "\u9023\u6c5f\u7e23\u5357\u7aff\u9109\u4ecb\u58fd\u675188\u865f", "lat": "26.157636", "lon": "119.949743"}, {"title": "\u99a5\u9e97\u6eab\u6cc9\u5927\u98ef\u5e97", "address": "\u5357\u6295\u7e23\u9b5a\u6c60\u9109\u6c34\u793e\u6751\u4e2d\u5c71\u8def250-1,250-2\u865f", "lat": "26.157636", "lon": "119.949743"}, {"title": "\u5922\u6c7d\u8eca\u65c5\u9928", "address": "\u5c4f\u6771\u7e23\u5167\u57d4\u9109\u5167\u7530\u6751\u6c38\u5149\u8def7\u865f", "lat": "22.614237", "lon": "120.56816"}, {"title": "\u7121\u7c73\u6a02\u8377\u862d\u4e95\u6e67\u6cc9\u6c11\u5bbf", "address": "\u81fa\u5357\u5e02\u5f8c\u58c1\u5340\u83c1\u5bee\u91cc\u83c1\u5bee129\u865f", "lat": "23.379599", "lon": "120.335557"}, {"title": "\u83ef\u6cf0\u738b\u5b50\u5927\u98ef\u5e97", "address": "\u81fa\u5317\u5e02\u4e2d\u5c71\u5340\u6797\u68ee\u5317\u8def369\u865f", "lat": "25.057758", "lon": "121.525638"}, {"title": "\u6155\u7530\u8ed2\u6c11\u5bbf", "address": "\u81fa\u6771\u7e23\u81fa\u6771\u5e02\u7d8f\u9060\u8def\u4e00\u6bb535\u5df73\u865f", "lat": "22.769578", "lon": "121.114189"}, {"title": "\u4eba\u9053\u570b\u969b\u9152\u5e97", "address": "\u9ad8\u96c4\u5e02\u4e09\u6c11\u5340\u4e5d\u5982\u4e00\u8def426\u865f1\u30013-11\u6a13", "lat": "22.638829", "lon": "120.330764"}, {"title": "\u9e97\u661f\u82b1\u5712MOTEL", "address": "\u6843\u5712\u5e02\u6843\u5712\u5340\u6c11\u5149\u6771\u8def165\u865f2-3\u6a13", "lat": "25.007152", "lon": "121.316644"}, {"title": "\u60f3\u4eab\u6c11\u5bbf", "address": "\u6f8e\u6e56\u7e23\u99ac\u516c\u5e02\u897f\u885b\u91cc26\u9130\u897f\u885b348\u865f", "lat": "23.586746", "lon": "119.582008"}, {"title": "\u51f1\u767b\u6c7d\u8eca\u65c5\u9928", "address": "\u5f70\u5316\u7e23\u5f70\u5316\u5e02\u4e2d\u592e\u8def174\u5df713.15\u865f", "lat": "24.0657723", "lon": "120.5303784"}, {"title": "\u5c71\u9802\u539d", "address": "\u6843\u5712\u5e02\u5fa9\u8208\u5340\u7fa9\u76db\u91cc1\u913012-1\u865f", "lat": "24.81473069", "lon": "121.35113408"}, {"title": "\u548c\u6a02\u82b1\u5712\u65c5\u5e97", "address": "\u9ad8\u96c4\u5e02\u524d\u91d1\u5340\u69ae\u5b89\u885735\u865f1-7\u6a13", "lat": "22.631007", "lon": "120.294034"}, {"title": "\u80b2\u677e\u5712\u5546\u65c5", "address": "\u6843\u5712\u5e02\u4e2d\u58e2\u5340\u4e2d\u592e\u897f\u8def\u4e00\u6bb51\u865f5\u6a13", "lat": "24.957188", "lon": "121.223368"}, {"title": "\u6771\u5cb8\u4e4b\u661f\u65c5\u5e97", "address": "\u57fa\u9686\u5e02\u4e2d\u6b63\u5340\u4fe1\u4e09\u8def20,22\u865f1-6\u6a13", "lat": "24.957188", "lon": "121.223368"}, {"title": "\u83f2\u65af\u4f69\u65c5\u5c45\u6c11\u5bbf", "address": "\u82b1\u84ee\u7e23\u82b1\u84ee\u5e02\u570b\u806f\u91cc\u570b\u8208\u4e09\u885775\u865f", "lat": "23.98883547", "lon": "121.60328357"}, {"title": "\u5c45\u4f73\u6c11\u5bbf", "address": "\u81fa\u6771\u7e23\u81fa\u6771\u5e02\u6f22\u53e3\u885730\u865f", "lat": "22.759843", "lon": "121.140845"}, {"title": "\u5594\u54c8\u5a1c\u6c11\u5bbf", "address": "\u6f8e\u6e56\u7e23\u767d\u6c99\u9109\u8b1b\u7f8e\u67518\u9130\u8b1b\u7f8e78\u865f2\u6a13", "lat": "23.632344", "lon": "119.599372"}, {"title": "\u6cd5\u6d1b\u7c73\u6c11\u5bbf", "address": "\u82b1\u84ee\u7e23\u5409\u5b89\u9109\u5e72\u57ce\u6751\u5e72\u57ce\u4e00\u8857135\u865f", "lat": "23.94876319", "lon": "121.54295875"}, {"title": "\u66a2\u904a\u6c11\u5bbf", "address": "\u81fa\u6771\u7e23\u5351\u5357\u9109\u660e\u5cf0\u6751\u5fe0\u5b5d\u8def272\u5df712\u865f", "lat": "22.860634", "lon": "121.09355"}, {"title": "\u661f\u9858\u5712", "address": "\u5b9c\u862d\u7e23\u51ac\u5c71\u9109\u5ee3\u8208\u675121\u9130\u6885\u82b1\u8def896\u865f", "lat": "24.65752431", "lon": "121.73192459"}, {"title": "\u590f\u723e\u8fe6", "address": "\u5b9c\u862d\u7e23\u4e94\u7d50\u9109\u5b63\u65b0\u6751\u5b63\u6c34\u8def47\u865f", "lat": "24.68397482", "lon": "121.83381956"}, {"title": "\u5927\u701a\u5c71\u838a\u6c11\u5bbf", "address": "\u81fa\u6771\u7e23\u95dc\u5c71\u93ae\u9577\u8208\u8def48-3\u865f", "lat": "23.04751432", "lon": "121.16307544"}, {"title": "\u61a8\u4eba\u5b85\u6c11\u5bbf", "address": "\u5c4f\u6771\u7e23\u7409\u7403\u9109\u4e2d\u5c71\u8def116-1\u865f", "lat": "22.351323", "lon": "120.381464"}, {"title": "\u7b46\u7b52\u6a39\u5c71\u838a", "address": "\u81fa\u6771\u7e23\u9e7f\u91ce\u9109\u6c38\u5b89\u6751\u9e7f\u5bee\u8def33\u5df718\u865f", "lat": "22.9342748", "lon": "121.1289253"}, {"title": "\u738b\u724c\u65c5\u9928", "address": "\u6843\u5712\u5e02\u6843\u5712\u5340\u671d\u967d\u88575\u865f2-8\u6a13\u4e4b1-3,9\u6a13\u4e4b1", "lat": "22.9342748", "lon": "121.1289253"}, {"title": "\u5bcc\u83ef\u5927\u98ef\u5e97", "address": "\u81fa\u5357\u5e02\u4e2d\u897f\u5340\u5fe0\u7fa9\u8def2\u6bb528\u865f", "lat": "22.991637", "lon": "120.202925"}, {"title": "\u6842\u6708\u6751", "address": "\u5357\u6295\u7e23\u9b5a\u6c60\u9109\u6c34\u793e\u6751\u540d\u52dd\u885728\u865f", "lat": "23.864829", "lon": "120.911115"}, {"title": "\u91d1\u6751\u6c11\u5bbf", "address": "\u5f70\u5316\u7e23\u6c38\u9756\u9109\u7368\u9c32\u6751\u5733\u8173\u5df745\u865f", "lat": "23.9130336", "lon": "120.5369709"}, {"title": "\u5e78\u904b\u8349\u5ead\u5712\u6c11\u5bbf", "address": "\u5b9c\u862d\u7e23\u51ac\u5c71\u9109\u67ef\u6797\u6751\u67ef\u6797\u8def248\u865f", "lat": "24.677147", "lon": "121.734251"}, {"title": "\u54e1\u6797\u5546\u52d9\u65c5\u9928", "address": "\u5f70\u5316\u7e23\u54e1\u6797\u5e02\u4e09\u7fa9\u8def115\u865f2,3,4,5,6,7\u6a13", "lat": "24.677147", "lon": "121.734251"}, {"title": "\u82b3\u8349\u53e4\u6a39\u82b1\u5712\u6c11\u5bbf", "address": "\u82b1\u84ee\u7e23\u9cf3\u6797\u93ae\u5927\u69ae\u91cc\u4e2d\u548c\u8def71-1\u865f", "lat": "23.746488", "lon": "121.45411"}, {"title": "\u5e36\u6708\u5c71\u4e18", "address": "\u81fa\u4e2d\u5e02\u6771\u52e2\u5340\u6771\u5d0e\u8def\u4e09\u6bb5192\u5df770\u865f", "lat": "24.269209", "lon": "120.87409"}, {"title": "\u653e\u725b\u5403\u8349\u6c11\u5bbf", "address": "\u5c4f\u6771\u7e23\u6046\u6625\u93ae\u57d4\u9802\u8def537\u865f", "lat": "21.920006", "lon": "120.843346"}, {"title": "\u5609\u8c6a\u5609\u7fa9\u884c\u85dd\u6587\u65c5", "address": "\u5609\u7fa9\u5e02\u897f\u5340\u4ec1\u611b\u8def345\u865f", "lat": "23.474742", "lon": "120.442105"}, {"title": "\u83ef\u6cf0\u745e\u82d1", "address": "\u5c4f\u6771\u7e23\u6046\u6625\u93ae\u516c\u5712\u8def101\u865f", "lat": "21.95659", "lon": "120.808405"}, {"title": "\u661f\u947d\u570b\u969b\u5546\u65c5", "address": "\u81fa\u5357\u5e02\u4e2d\u897f\u5340\u5b89\u6d77\u91cc\u91d1\u83ef\u8def\u4e09\u6bb5218\u865f1-4\u6a13", "lat": "22.994647", "lon": "120.19381"}, {"title": "\u65b0\u6c34\u8abf\u6b4c\u982d\u6c11\u5bbf", "address": "\u91d1\u9580\u7e23\u91d1\u57ce\u93ae\u91d1\u6c34\u91cc\u524d\u6c34\u982d35\u53ca36\u865f", "lat": "24.43343251", "lon": "118.3172157"}, {"title": "\u7b28\u6e2f\u5ba2\u68e7", "address": "\u96f2\u6797\u7e23\u5317\u6e2f\u93ae\u4ec1\u548c\u8def7\u865f", "lat": "23.568892", "lon": "120.304971"}, {"title": "\u65b0\u5927\u7af9\u5317\u5546\u65c5", "address": "\u65b0\u7af9\u7e23\u7af9\u5317\u5e02\u5149\u660e\u4e5d\u8def1\u865f1\u81f36\u6a13", "lat": "24.822245", "lon": "121.015391"}, {"title": "\u5cb8\u6200\u6c11\u5bbf", "address": "\u5c4f\u6771\u7e23\u6046\u6625\u93ae\u8239\u5e06\u8def618\u865f", "lat": "21.932557", "lon": "120.824672"}, {"title": "\u5b89\u53ef\u7684\u5bb6\u6c11\u5bbf", "address": "\u5c4f\u6771\u7e23\u6046\u6625\u93ae\u5149\u660e\u8def112\u865f", "lat": "22.002747", "lon": "120.742983"}, {"title": "\u672c\u516d\u6728\u65c5\u9928", "address": "\u5c4f\u6771\u7e23\u5c4f\u6771\u5e02\u5efa\u83ef\u4e09\u88571\u865f1-3\u6a13", "lat": "22.66664", "lon": "120.484189"}, {"title": "\u5b89\u5e7372\u865f\u6c11\u5bbf", "address": "\u81fa\u5357\u5e02\u5b89\u5e73\u5340\u4e16\u5e73\u4e00\u88578\u5df772\u865f", "lat": "22.99667209", "lon": "120.150927"}, {"title": "\u53e4\u6839\u6587\u65c5", "address": "\u81fa\u5357\u5e02\u4e2d\u897f\u5340\u53cb\u611b\u8857148\u865f", "lat": "22.991913", "lon": "120.197701"}, {"title": "\u51f1\u767b\u5546\u52d9\u65c5\u9928", "address": "\u96f2\u6797\u7e23\u6597\u516d\u5e02\u4e2d\u5c71\u8def12\u865f4-5\u6a13", "lat": "23.710538", "lon": "120.542414"}, {"title": "\u4e8c\u5f04\u516b\u865f", "address": "\u81fa\u5357\u5e02\u4e2d\u897f\u5340\u958b\u5c71\u91cc6\u9130\u5e9c\u524d\u8def\u4e00\u6bb585\u5df72\u5f048\u865f", "lat": "22.988537", "lon": "120.209178"}, {"title": "\u9326\u68e7\u5546\u65c5", "address": "\u81fa\u5317\u5e02\u4e2d\u5c71\u5340\u6797\u68ee\u5317\u8def413\u865f2\u6a13\u30017\u6a13\u30017\u6a13\u4e4b14\u53ca\u9326\u5dde\u885746\u865f7\u6a13\u300148\u865f7\u6a13", "lat": "25.05978", "lon": "121.525676"}, {"title": "\u548c\u6a02\u8cd3\u9928", "address": "\u6843\u5712\u5e02\u516b\u5fb7\u5340\u4ecb\u58fd\u8def\u4e8c\u6bb51149\u865f1-3\u6a13", "lat": "24.9322", "lon": "121.297618"}, {"title": "\u7da0\u82b3\u6c34\u5cb8\u6c11\u5bbf", "address": "\u5c4f\u6771\u7e23\u6771\u6e2f\u93ae\u535a\u611b\u8857298\u865f", "lat": "22.469584", "lon": "120.449554"}, {"title": "\u65c5\u6a39\u6c11\u5bbf", "address": "\u5b9c\u862d\u7e23\u51ac\u5c71\u9109\u6b66\u6df5\u4e09\u8def46\u865f", "lat": "24.672428", "lon": "121.810388"}, {"title": "\u85cd\u6d77\u5947\u7de3\u6c11\u5bbf", "address": "\u81fa\u6771\u7e23\u7da0\u5cf6\u9109\u516c\u9928\u6751\u6eab\u6cc943\u865f", "lat": "22.6461264", "lon": "121.498039"}, {"title": "\u9e97\u666f\u6c11\u5bbf", "address": "\u65b0\u5317\u5e02\u745e\u82b3\u5340\u8f15\u4fbf\u8def93\u865f3\u6a13", "lat": "25.109038", "lon": "121.844946"}, {"title": "\u6c34\u7530\u71df\u5730\u6c11\u5bbf", "address": "\u65b0\u7af9\u7e23\u5c16\u77f3\u9109\u65b0\u6a02\u6751\u6c34\u7530190\u865f", "lat": "24.734995", "lon": "121.259341"}, {"title": "\u6b16\u4eba\u751f\u614b\u6c11\u5bbf", "address": "\u81fa\u5357\u5e02\u4e03\u80a1\u5340\u5341\u4efd\u91cc13\u9130\u5341\u4efd74\u865f\u4e4b10", "lat": "23.1406921", "lon": "120.13943863"}, {"title": "\u963f\u91cc\u78c5\u751f\u614b\u8fb2\u5834\u6c11\u5bbf", "address": "\u65b0\u5317\u5e02\u77f3\u9580\u5340\u4e7e\u83ef\u91cc\u963f\u91cc\u78c582\u4e4b1\u865f", "lat": "25.26331419", "lon": "121.5843315"}, {"title": "\u91ce\u6e21\u5047\u65c5\u5e97\u6c11\u5bbf", "address": "\u6f8e\u6e56\u7e23\u99ac\u516c\u5e02\u5149\u69ae\u91cc24\u9130\u4e09\u591a\u8def396\u865f", "lat": "23.577133", "lon": "119.569644"}, {"title": "\u6cb3\u5824\u6200\u9928\u6c7d\u8eca\u65c5\u9928", "address": "\u9ad8\u96c4\u5e02\u82d3\u96c5\u5340\u61b2\u653f\u8def128\u865f", "lat": "22.636101", "lon": "120.324198"}, {"title": "\u973d\u6708\u5c71\u838a\u6c11\u5bbf", "address": "\u65b0\u7af9\u7e23\u65b0\u57d4\u93ae\u7167\u9580\u91cc6\u9130\u4e5d\u828e\u6e5615-7\u865f", "lat": "24.853049", "lon": "121.105745"}, {"title": "\u7d93\u5178\u5047\u65e5\u98ef\u5e97", "address": "\u82b1\u84ee\u7e23\u82b1\u84ee\u5e02\u570b\u806f\u91cc30\u9130\u570b\u806f\u4e94\u8def139\u865f", "lat": "23.99327127", "lon": "121.60467154"}, {"title": "\u7409\u590f\u840a\u516b\u6751\u65c5\u5e97", "address": "\u5c4f\u6771\u7e23\u7409\u7403\u9109\u672c\u798f\u6751\u6c11\u751f\u8def43-2\u865f", "lat": "22.353192", "lon": "120.38131"}, {"title": "\uff2d\uff45\uff52\uff4c\uff49\uff4e\uff12\uff10", "address": "\u5b9c\u862d\u7e23\u7901\u6eaa\u9109\u6b66\u6696\u8def108-20\u865f", "lat": "24.7785674", "lon": "121.773599"}, {"title": "\u9996\u90fd\u552f\u5ba2\u6a02\u98ef\u5e97", "address": "\u81fa\u5317\u5e02\u4e2d\u5c71\u5340\u9577\u6625\u8def187\u865f1-9\u6a13", "lat": "25.054864", "lon": "121.537738"}, {"title": "\u9ad8\u7b2c\u5927\u98ef\u5e97", "address": "\u9ad8\u96c4\u5e02\u82d3\u96c5\u5340\u5efa\u6c11\u8def37\u865f", "lat": "22.628549", "lon": "120.333166"}, {"title": "\u73ab\u7470\u7cbe\u54c1\u65c5\u9928-\u6797\u68ee\u9928", "address": "\u81fa\u5317\u5e02\u4e2d\u5c71\u5340\u6797\u68ee\u5317\u8def133\u5df78\u865f", "lat": "25.050863", "lon": "121.525751"}, {"title": "\u9999\u83c7\u5712", "address": "\u5357\u6295\u7e23\u9b5a\u6c60\u9109\u6771\u6c60\u6751\u6587\u6b66\u5df719-10\u865f", "lat": "23.892609", "lon": "120.94046"}, {"title": "\u6d3a\u6cc9\u65c5\u793e", "address": "\u5c4f\u6771\u7e23\u8eca\u57ce\u9109\u6eab\u6cc9\u6751\u6eab\u6cc9\u8def\u7389\u6cc9\u5df72\u865f", "lat": "22.09315", "lon": "120.747452"}, {"title": "\u9806\u5104\u5546\u52d9\u65c5\u9928", "address": "\u5609\u7fa9\u5e02\u897f\u5340\u4e2d\u5c71\u8def617\u865f10\u6a13", "lat": "23.478164", "lon": "120.441419"}, {"title": "\u4ee5\u5408\u91d1\u5be8", "address": "\u82b1\u84ee\u7e23\u58fd\u8c50\u9109\u7c73\u68e7\u67516\u9130\u7c73\u68e72\u6bb53\u4e4b1\u865f", "lat": "23.87018923", "lon": "121.50905477"}, {"title": "\u4f73\u5712\u6e21\u5047\u6c11\u5bbf", "address": "\u5357\u6295\u7e23\u57d4\u91cc\u93ae\u6843\u7c73\u91cc\u6843\u7c73\u5df76-8\u865f", "lat": "23.939105", "lon": "120.941628"}, {"title": "\u5169\u6735\u6600\u6c11\u5bbf", "address": "\u81fa\u6771\u7e23\u81fa\u6771\u5e02\u6c38\u5b89\u885718\u5df79\u865f", "lat": "22.781084", "lon": "121.125649"}, {"title": "\u5922\u7530\u6c11\u5bbf", "address": "\u6f8e\u6e56\u7e23\u897f\u5dbc\u9109\u8d64\u99ac\u6751\u7ddd\u99ac\u706330\u865f", "lat": "23.585158", "lon": "119.50583"}, {"title": "\u5927\u7532\u5927\u98ef\u5e97", "address": "\u81fa\u4e2d\u5e02\u5927\u7532\u5340\u8523\u516c\u8def73\u865f", "lat": "24.345214", "lon": "120.624179"}, {"title": "\u83ef\u5b89\u65c5\u793e", "address": "\u5c4f\u6771\u7e23\u6771\u6e2f\u93ae\u4e2d\u5c71\u8def71-1\u865f", "lat": "22.46671", "lon": "120.450105"}, {"title": "\u5b89\u8fb2\u9038\u5883", "address": "\u5b9c\u862d\u7e23\u4e09\u661f\u9109\u4e94\u5206\u8def\u4e8c\u6bb5348\u865f", "lat": "24.68929823", "lon": "121.72598985"}, {"title": "\u5927\u5cef\u5c71\u838a", "address": "\u5609\u7fa9\u7e23\u963f\u91cc\u5c71\u9109\u4e2d\u6b63\u6751\u6771\u963f\u91cc\u5c7146\u865f", "lat": "23.511738", "lon": "120.803389"}, {"title": "\u827e\u7c73\u5361\u85a9\u6c11\u5bbf", "address": "\u82b1\u84ee\u7e23\u82b1\u84ee\u5e02\u4e2d\u9806\u885729\u865f", "lat": "23.96759679", "lon": "121.59808068"}, {"title": "\u65c5\u884c\u5bb6\u5546\u52d9\u6703\u9928", "address": "\u81fa\u6771\u7e23\u81fa\u6771\u5e02\u5b89\u6176\u885742\u865f", "lat": "22.7532027", "lon": "121.1511251"}, {"title": "\u7530\u7684\u5bb6\u6c11\u5bbf", "address": "\u81fa\u6771\u7e23\u7da0\u5cf6\u9109\u516c\u9928\u6751\u516c\u9928\u8def58\u865f", "lat": "22.66924173", "lon": "121.46827735"}, {"title": "\u5947\u9047\u679c\u4eba\u6587\u65c5\u5e97", "address": "\u81fa\u5357\u5e02\u5317\u5340\u897f\u9580\u8def4\u6bb5341\u5df716\u865f3\u30014\u30015\u6a13", "lat": "23.015456", "lon": "120.209478"}, {"title": "\u7c73\u90fd\u5546\u52d9\u98ef\u5e97", "address": "\u96f2\u6797\u7e23\u897f\u87ba\u93ae\u4e2d\u5c71\u8def8\u865f", "lat": "23.800215", "lon": "120.464366"}, {"title": "\u6d77\u97fb\u6c11\u5bbf", "address": "\u81fa\u6771\u7e23\u7da0\u5cf6\u9109\u5357\u5bee\u6751\u5357\u5bee210\u865f", "lat": "22.6699558", "lon": "121.4683206"}, {"title": "\u53f0\u4e2d\u91d1\u5178\u9152\u5e97", "address": "\u81fa\u4e2d\u5e02\u897f\u5340\u5065\u884c\u8def1049\u865f", "lat": "24.155773", "lon": "120.663221"}, {"title": "\u677e\u7530\u6c11\u5bbf", "address": "\u5b9c\u862d\u7e23\u7901\u6eaa\u9109\u767d\u96f2\u6751\u4efd\u5c3e\u4e00\u8def118\u865f", "lat": "24.8338339", "lon": "121.7880792"}, {"title": "\u7f85\u6d6e\u5929\u7a7a", "address": "\u6843\u5712\u5e02\u5fa9\u8208\u5340\u7fa9\u76db\u91cc8\u9130\u5927\u5229\u5e7913\u865f", "lat": "24.785174", "lon": "121.368482"}, {"title": "\u54aa\u5152\u6c11\u5bbf", "address": "\u91d1\u9580\u7e23\u70c8\u5dbc\u9109\u9752\u5c901\u4e4b6\u865f", "lat": "24.41477702", "lon": "118.22934786"}, {"title": "\u6458\u661f\u82b1\u5712\u5c71\u838a(\u7279\u8272\u6c11\u5bbf)", "address": "\u5357\u6295\u7e23\u4ec1\u611b\u9109\u5927\u540c\u6751\u69ae\u5149\u5df751\u865f", "lat": "24.035064", "lon": "121.15457"}, {"title": "\u82e5\u5bb6\u6c11\u5bbf", "address": "\u81fa\u6771\u7e23\u95dc\u5c71\u93ae\u91cc\u58e0\u91cc23\u9130\u6c34\u6e9021\u865f", "lat": "23.047037", "lon": "121.1529318"}, {"title": "\u6709\u68f5\u6a39\u7279\u8272\u6c11\u5bbf", "address": "\u5c4f\u6771\u7e23\u6046\u6625\u93ae\u6a39\u6797\u8def51-7\u865f", "lat": "21.951589", "lon": "120.725041"}, {"title": "\u5bcc\u5821\u6c7d\u8eca\u65c5\u9928", "address": "\u82b1\u84ee\u7e23\u82b1\u84ee\u5e02\u570b\u806f\u91cc16\u9130\u570b\u806f\u4e8c\u8def101\u865f", "lat": "23.98922017", "lon": "121.60285837"}, {"title": "\u751f\u614b\u7da0\u821f\u6c11\u5bbf", "address": "\u5b9c\u862d\u7e23\u51ac\u5c71\u9109\u73cd\u73e0\u4e09\u8def21\u865f", "lat": "24.650114", "lon": "121.784884"}, {"title": "\u767e\u8001\u532f\u65c5\u9928", "address": "\u6843\u5712\u5e02\u4e2d\u58e2\u5340\u5143\u5316\u8def\u4e8c\u6bb5122\u865f", "lat": "24.962896", "lon": "121.219698"}, {"title": "\u311a\u4e00\u311a\u65fa\u6eab\u6cc9\u6e21\u5047\u6751", "address": "\u81fa\u6771\u7e23\u5351\u5357\u9109\u6eab\u6cc9\u6751\u9f8d\u6cc9\u8def136\u5df72\u865f", "lat": "22.691248", "lon": "121.0001612"}, {"title": "\u5927\u6b23\u5927\u98ef\u5e97", "address": "\u81fa\u5317\u5e02\u4e2d\u5c71\u5340\u4e2d\u5c71\u5317\u8def\u4e8c\u6bb527\u5df72-2\u865f1-5\u6a13", "lat": "25.053149", "lon": "121.523188"}, {"title": "\u4e0a\u79be\u5712\u6c11\u5bbf", "address": "\u91d1\u9580\u7e23\u91d1\u6e56\u93ae\u65b0\u6e56\u91cc\u6797\u515c77\u865f", "lat": "24.434932", "lon": "118.419369"}, {"title": "\u6d25\u6c99\u5ba2\u68e7", "address": "\u9023\u6c5f\u7e23\u5357\u7aff\u9109\u6d25\u6c99\u675112\u865f", "lat": "26.160759", "lon": "119.947924"}, {"title": "\u5fae\u91ba", "address": "\u91d1\u9580\u7e23\u91d1\u57ce\u93ae\u53e4\u57ce\u91cc6\u9130\u91d1\u9580\u57ce68\u4e4b3\u865f", "lat": "24.39961782", "lon": "118.30384317"}, {"title": "\u7d71\u4e00\u65c5\u793e", "address": "\u81fa\u6771\u7e23\u81fa\u6771\u5e02\u65b0\u751f\u8def120\u865f", "lat": "22.7524694", "lon": "121.1484391"}, {"title": "\u8587\u96c5\u82b1\u82d1\u6c11\u5bbf", "address": "\u82b1\u84ee\u7e23\u82b1\u84ee\u5e02\u4e3b\u6b0a\u91cc\u4e2d\u83ef\u8def426\u865f", "lat": "23.97479088", "lon": "121.59430596"}, {"title": "\u7da0\u6587\u65c5\u793e", "address": "\u57fa\u9686\u5e02\u4ec1\u611b\u5340\u4ec1\u4e09\u8def28\u865f2-4\u6a13", "lat": "25.128171", "lon": "121.744002"}, {"title": "\u6771\u65b9\u5546\u52d9\u5927\u98ef\u5e97", "address": "\u5b9c\u862d\u7e23\u7f85\u6771\u93ae\u548c\u5e73\u8def109\u865f", "lat": "24.677395", "lon": "121.772475"}, {"title": "\u666e\u7f85\u65fa\u65af\u9109\u6751\u6c11\u5bbf", "address": "\u82d7\u6817\u7e23\u5357\u5e84\u9109\u84ec\u840a\u67519\u913042\u4efd8-35\u865f", "lat": "24.534053", "lon": "120.963541"}, {"title": "\u5e0c\u671b\u6bbf\u5802\u7cbe\u7dfb\u5546\u65c5", "address": "\u9ad8\u96c4\u5e02\u4e09\u6c11\u5340\u81ea\u7acb\u4e00\u8def303\u865f", "lat": "22.643928", "lon": "120.29626"}, {"title": "\u5317\u6295\u9e97\u79a7\u6eab\u6cc9\u9152\u5e97", "address": "\u81fa\u5317\u5e02\u5317\u6295\u5340\u5e7d\u96c5\u8def30\u865f", "lat": "25.137881", "lon": "121.514953"}, {"title": "\u6d77\u77f3\u751f\u6d3b\u9928\u6c11\u5bbf", "address": "\u82b1\u84ee\u7e23\u5409\u5b89\u9109\u592a\u660c\u675125\u9130\u660e\u7fa9\u4e03\u8857159\u865f", "lat": "23.98705559", "lon": "121.55402076"}, {"title": "\u81ea\u5728\u65c5\u5e97", "address": "\u5c4f\u6771\u7e23\u6771\u6e2f\u93ae\u5357\u5e73\u8def190\u865f", "lat": "22.433118", "lon": "120.479524"}, {"title": "\u7389\u7063\u9d6c\u7063\u6c11\u5bbf", "address": "\u5c4f\u6771\u7e23\u6771\u6e2f\u93ae\u5609\u65b0\u4e00\u885726\u865f", "lat": "22.460615", "lon": "120.456482"}, {"title": "\u57d4\u91cc\u68ee\u306e\u5c4b\u65c5\u5bbf", "address": "\u5357\u6295\u7e23\u57d4\u91cc\u93ae\u6787\u6777\u91cc42\u9130\u6a39\u4eba\u4e8c\u8857238\u865f", "lat": "23.96426", "lon": "120.976008"}, {"title": "\u73e0\u5c71\u5927\u9662", "address": "\u91d1\u9580\u7e23\u91d1\u57ce\u93ae\u73e0\u5c7126\u865f", "lat": "24.40137212", "lon": "118.32118831"}, {"title": "\u91c7\u8679\u68ee\u6797", "address": "\u5f70\u5316\u7e23\u79c0\u6c34\u9109\u9db4\u9cf4\u6751\u6c38\u8208\u5df79-1\u865f", "lat": "24.0508474", "lon": "120.4899125"}, {"title": "\u91d1\u68e7", "address": "\u91d1\u9580\u7e23\u91d1\u6c99\u93ae\u5b98\u5dbc\u91cc\u5b98\u6fb3216\u865f", "lat": "24.48792739", "lon": "118.41010903"}, {"title": "\u6d6f\u5c45\u543e\u5bbf", "address": "\u91d1\u9580\u7e23\u91d1\u5be7\u9109\u6e56\u57d4\u6751\u5f8c\u57d4116\u4e4b1\u865f", "lat": "24.45088311", "lon": "118.33298178"}, {"title": "\u6c83\u5ba2\u5546\u65c5-\u897f\u9580\u9928", "address": "\u81fa\u5317\u5e02\u842c\u83ef\u5340\u4e2d\u83ef\u8def\u4e00\u6bb5144\u865f10\u6a13", "lat": "25.043163", "lon": "121.50813"}, {"title": "\u6d77\u971e\u60a8\u7684\u5bb6", "address": "\u65b0\u5317\u5e02\u8ca2\u5bee\u5340\u4ec1\u611b\u8def38\u865f", "lat": "25.05315739", "lon": "121.9251122"}, {"title": "\u7da0\u4e4b\u4e18\u6c11\u5bbf", "address": "\u81fa\u6771\u7e23\u81fa\u6771\u5e02\u6587\u5c71\u8def38\u5df79\u865f", "lat": "22.743063", "lon": "121.140655"}, {"title": "\u96f2\u4eab\u6c11\u5bbf", "address": "\u6f8e\u6e56\u7e23\u99ac\u516c\u5e02\u6771\u6587\u91cc\u6587\u5b78\u8def255\u5df76\u865f", "lat": "23.561654", "lon": "119.582125"}, {"title": "\u6d77\u5409\u5152", "address": "\u5b9c\u862d\u7e23\u982d\u57ce\u93ae\u5916\u6fb3\u91cc\u6ff1\u6d77\u8def\u4e8c\u6bb51\u5df711\u865f", "lat": "24.87877975", "lon": "121.84023183"}, {"title": "\u751c\u5fc3\u6d77\u5cb8\u6c11\u5bbf", "address": "\u82b1\u84ee\u7e23\u82b1\u84ee\u5e02\u5317\u6ff1\u885712\u5df711\u865f", "lat": "23.97390147", "lon": "121.61458589"}, {"title": "\u5eb7\u6a4b\u5927\u98ef\u5e97-\u53f0\u6771\u9928", "address": "\u81fa\u6771\u7e23\u81fa\u6771\u5e02\u4e2d\u8208\u8def\u4e00\u6bb5209\u5df716\u865f1-7\u6a13", "lat": "22.7675305", "lon": "121.1420181"}, {"title": "\u745e\u683c\u7d0d\u5927\u98ef\u5e97", "address": "\u81fa\u5317\u5e02\u677e\u5c71\u5340\u5fa9\u8208\u5317\u8def307\u865f1\u81f37\u6a13", "lat": "25.0586", "lon": "121.544371"}, {"title": "\u6c34\u982d103\u865f\u6c11\u5bbf", "address": "\u91d1\u9580\u7e23\u91d1\u57ce\u93ae\u524d\u6c34\u982d103\u865f", "lat": "24.4108845", "lon": "118.29654058"}, {"title": "\u597d\u5730\u65b9\u65c5\u5c45\u6587\u65c5", "address": "\u9ad8\u96c4\u5e02\u82d3\u96c5\u5340\u4e09\u591a\u56db\u8def63\u865f11\u6a13\u4e4b1", "lat": "22.612846", "lon": "120.301797"}, {"title": "\u7c21\u55ae\u751f\u6d3b\u6c11\u5bbf", "address": "\u82b1\u84ee\u7e23\u65b0\u57ce\u9109\u4f73\u6797\u67515\u9130\u4f73\u6797112\u4e4b9\u865f", "lat": "24.032981", "lon": "121.595811"}, {"title": "\u5ead\u7fca\u6c11\u5bbf", "address": "\u81fa\u6771\u7e23\u81fa\u6771\u5e02\u9752\u6d77\u8def\u4e8c\u6bb5581\u5df797\u5f0433\u865f", "lat": "22.7319191", "lon": "121.0588801"}, {"title": "\u5f64\u6674\u6b23\u5546\u65c5", "address": "\u81fa\u5317\u5e02\u4e2d\u5c71\u5340\u65b0\u751f\u5317\u8def1\u6bb566\u865f2\u81f34\u6a13", "lat": "25.047042", "lon": "121.530382"}, {"title": "\u67ef\u9054\u5927\u98ef\u5e97\u6566\u5357\u5e97", "address": "\u81fa\u5317\u5e02\u5927\u5b89\u5340\u6566\u5316\u5357\u8def\u4e8c\u6bb5238\u865fB1-14\u6a13", "lat": "25.020968", "lon": "121.548267"}, {"title": "\u70ad\u9109\u516b\u516b", "address": "\u82d7\u6817\u7e23\u4e09\u7fa9\u9109\u96d9\u6e56\u675122\u9130\u5927\u575188\u865f", "lat": "24.411974", "lon": "120.752601"}, {"title": "\u5927\u9d6c\u7063\u5927\u98ef\u5e97", "address": "\u5c4f\u6771\u7e23\u6771\u6e2f\u93ae\u4e2d\u5c71\u8def59\u865f", "lat": "22.466206", "lon": "120.450688"}, {"title": "REST\u745e\u65af\u7279\u80cc\u5305\u5ba2\u68e7", "address": "\u81fa\u5357\u5e02\u4e2d\u897f\u5340\u6210\u529f\u8def313\u5df726\u865f", "lat": "22.999493", "lon": "120.200455"}, {"title": "\u65e5\u6708\u6200\u6d77\u6e21\u5047\u6c11\u5bbf", "address": "\u82b1\u84ee\u7e23\u65b0\u57ce\u9109\u5eb7\u6a02\u675125\u9130\u7d2b\u57122\u5df75\u865f", "lat": "24.03947427", "lon": "121.60444203"}, {"title": "\u6709\u8aa0\u5546\u65c5", "address": "\u81fa\u5317\u5e02\u58eb\u6797\u5340\u81f3\u5584\u8def\u4e8c\u6bb555\u865f4\u6a13\u81f310\u6a13", "lat": "25.097714", "lon": "121.545008"}, {"title": "\u627f\u5104\u8f15\u65c5\u53f0\u5357\u9928", "address": "\u81fa\u5357\u5e02\u4e2d\u897f\u5340\u53cb\u611b\u8857309\u5df720\u865fB1-4\u6a13", "lat": "22.991928", "lon": "120.195449"}, {"title": "\u8212\u6f2b\u6d3b\u6d77\u666f\u65c5\u5bbf(\u7279\u8272\u6c11\u5bbf)", "address": "\u9023\u6c5f\u7e23\u5317\u7aff\u9109\u6a4b\u4ed4\u675185\u865f", "lat": "26.224163", "lon": "119.995229"}, {"title": "\u6c34\u91cc\u6cb3\u5824\u5496\u5561\u6c11\u5bbf", "address": "\u5357\u6295\u7e23\u6c34\u91cc\u9109\u5317\u57d4\u6751\u6771\u4e09\u8857110\u865f", "lat": "23.814022", "lon": "120.854134"}, {"title": "\u73ab\u7470\u838a\u5712", "address": "\u5b9c\u862d\u7e23\u51ac\u5c71\u9109\u6885\u82b1\u8def742\u865f", "lat": "24.65991012", "lon": "121.73469477"}, {"title": "\u6708\u5152\u7530", "address": "\u5b9c\u862d\u7e23\u7901\u6eaa\u9109\u7389\u5149\u6751\u746a\u50ef\u8def35-22\u865f", "lat": "24.792853", "lon": "121.769583"}, {"title": "\u559c\u4f86\u767b\u6c7d\u8eca\u65c5\u9928", "address": "\u81fa\u5357\u5e02\u4f73\u91cc\u5340\u6c11\u5b89\u91cc\u540c\u5b89\u5bee1-20\u865f", "lat": "23.165801", "lon": "120.189603"}, {"title": "\u798f\u6709\u6c11\u5bbf", "address": "\u6f8e\u6e56\u7e23\u99ac\u516c\u5e02\u5149\u5fa9\u91cc\u4e2d\u83ef\u8def36\u865f", "lat": "23.568928", "lon": "119.569423"}, {"title": "\u529b\u9e97\u54f2\u5712-\u65e5\u6f6d\u9928", "address": "\u5357\u6295\u7e23\u9b5a\u6c60\u9109\u65e5\u6708\u6751\u6c34\u79c0\u88577\u865f", "lat": "23.848863", "lon": "120.93122"}, {"title": "\u6211\u611b\u4f60\u5b78\u7530", "address": "\u6843\u5712\u5e02\u65b0\u5c4b\u5340\u4e5d\u6597\u91cc2\u9130\u4e94\u8c37\u8def722\u5df782\u865f", "lat": "24.963609", "lon": "121.123389"}, {"title": "\u9f8d\u8208\u5546\u52d9\u65c5\u5e97", "address": "\u82b1\u84ee\u7e23\u82b1\u84ee\u5e02\u6c11\u65cf\u91cc9\u9130\u798f\u5efa\u8857513\u865f", "lat": "23.97584733", "lon": "121.61095875"}, {"title": "\u82b1\u7e23\uff0e\u5e78\u798f\uff0e16\u865f\u6c11\u5bbf", "address": "\u82b1\u84ee\u7e23\u65b0\u57ce\u9109\u5eb7\u6a02\u67511\u9130\u7cbe\u820d\u885785\u5df716\u865f", "lat": "24.04869", "lon": "121.60003"}, {"title": "\u8d6b\u7d72\u73c0HSR\u9ad8\u9435\u884c\u65c5", "address": "\u81fa\u4e2d\u5e02\u70cf\u65e5\u5340\u65b0\u8208\u8def255\u865f", "lat": "24.104114", "lon": "120.623828"}, {"title": "\u592b\u4eba\u6c11\u5bbf", "address": "\u9023\u6c5f\u7e23\u5357\u7aff\u9109\u56db\u7dad\u675140\u4e4b1\u865f", "lat": "26.160129", "lon": "119.949167"}, {"title": "\u7530\u5712\u6cb3\u7554", "address": "\u5b9c\u862d\u7e23\u51ac\u5c71\u9109\u6b66\u6df5\u6751\u6771\u4e94\u8def66\u865f", "lat": "24.664707", "lon": "121.804066"}, {"title": "\u6df5\u8208\u65c5\u793e", "address": "\u5c4f\u6771\u7e23\u8eca\u57ce\u9109\u798f\u8208\u6751\u4e2d\u5c71\u8def16\u865f", "lat": "22.071708", "lon": "120.71378"}, {"title": "\u842c\u66c4\u8776\u574a\u6c11\u5bbf", "address": "\u81fa\u6771\u7e23\u9e7f\u91ce\u9109\u9f8d\u7530\u6751\u5149\u69ae\u8def620\u865f", "lat": "22.904532", "lon": "121.1119721"}, {"title": "\u9e7d\u9109\u6c11\u5bbf", "address": "\u81fa\u5357\u5e02\u5317\u9580\u5340\u6c38\u83ef\u91cc\u4e95\u4ed4\u817357\u865f", "lat": "23.2676625", "lon": "120.1255101"}, {"title": "\u694a\u5abd\u5abd\u6c11\u5bbf", "address": "\u82b1\u84ee\u7e23\u5409\u5b89\u9109\u4ec1\u91cc\u6751\u4ec1\u91cc\u4e5d\u885717\u865f", "lat": "23.96656553", "lon": "121.59017787"}, {"title": "\u5409\u91ce\u6e21\u5047\u5c71\u838a", "address": "\u5357\u6295\u7e23\u9e7f\u8c37\u9109\u548c\u96c5\u6751\u6797\u5c3e\u5df713-5\u865f", "lat": "23.705107", "lon": "120.777153"}, {"title": "\u51f1\u90fd\u5927\u98ef\u5e97", "address": "\u6843\u5712\u5e02\u4e2d\u58e2\u5340\u6148\u60e0\u4e09\u885788\u865f1-8\u6a13", "lat": "24.96159", "lon": "121.22547"}, {"title": "\u6a9c\u6728\u5c45\u6c11\u5bbf", "address": "\u82b1\u84ee\u7e23\u5409\u5b89\u9109\u52dd\u5b89\u6751\u6148\u60e0\u4e00\u885758\u865f", "lat": "23.97620336", "lon": "121.5851688"}, {"title": "\u5143\u6c23\u8001\u7239\u6c11\u5bbf", "address": "\u5c4f\u6771\u7e23\u6046\u6625\u93ae\u57d4\u9802\u8def535\u865f", "lat": "21.920073", "lon": "120.843461"}, {"title": "\u83ef\u95a3\u6eab\u6cc9\u98ef\u5e97", "address": "\u5b9c\u862d\u7e23\u7901\u6eaa\u9109\u516c\u5712\u8def25\u865f", "lat": "24.830211", "lon": "121.775798"}, {"title": "\u7da0\u5c3c\u4e9e\u6c11\u5bbf", "address": "\u5c4f\u6771\u7e23\u7409\u7403\u9109\u4e2d\u5c71\u8def116-2\u865f", "lat": "22.351299", "lon": "120.381501"}, {"title": "\u516b\u624d\u5b50\u6c11\u5bbf", "address": "\u5357\u6295\u7e23\u9e7f\u8c37\u9109\u9e7f\u5f70\u8def217\u865f", "lat": "23.745664", "lon": "120.752111"}, {"title": "\u6c90\u820d\u6642\u5c1a\u9152\u5e97", "address": "\u65b0\u5317\u5e02\u4e2d\u548c\u5340\u4e2d\u6b63\u8def776\u865f", "lat": "25.000388", "lon": "121.485244"}, {"title": "\u6f3e\u9928\u6eab\u6cc9\u5546\u65c5", "address": "\u81fa\u5317\u5e02\u5317\u6295\u5340\u6eab\u6cc9\u8def63\u865f1-4\u6a13", "lat": "25.135122", "lon": "121.504538"}, {"title": "\u4eab\u6a02\u6587\u65c5\u98ef\u5e97 \u5eb7\u5b9a\u9928", "address": "\u81fa\u5317\u5e02\u842c\u83ef\u5340\u5eb7\u5b9a\u8def32\u865f", "lat": "25.044032", "lon": "121.502572"}, {"title": "\u5e84\u5712", "address": "\u81fa\u4e2d\u5e02\u540e\u91cc\u5340\u592a\u5e73\u91cc\u516c\u9928\u8def20\u4e4b20\u865f", "lat": "24.310681", "lon": "120.662902"}, {"title": "\u6c38\u5229\u98ef\u5e97", "address": "\u96f2\u6797\u7e23\u53e4\u5751\u9109\u8349\u5dba\u6751\u8349\u5dba21-7\u865f2-4\u6a13", "lat": "23.582165", "lon": "120.694175"}, {"title": "\u5e73\u51e1\u5e73\u623f\u6c11\u5bbf", "address": "\u81fa\u6771\u7e23\u9e7f\u91ce\u9109\u745e\u8c50\u6751\u6c34\u6e90\u8def90\u5df713\u865f", "lat": "22.9921593", "lon": "121.1365506"}, {"title": "\u82b9\u58c1\u675125\u865f\u4e4b\u8001\u6751\u9577\u7684\u6f01\u5bee", "address": "\u9023\u6c5f\u7e23\u5317\u7aff\u9109\u82b9\u58c1\u675124\u865f", "lat": "26.223432", "lon": "119.993671"}, {"title": "\u5317\u9580\u6587\u65c5", "address": "\u81fa\u5317\u5e02\u5927\u540c\u5340\u9577\u5b89\u897f\u8def145\u5df73\u865f", "lat": "25.051714", "lon": "121.514957"}, {"title": "\u51f1\u6e25\u6c7d\u8eca\u65c5\u9928", "address": "\u81fa\u5357\u5e02\u6771\u5340\u88d5\u6c38\u4e00\u885766\u865f3\u6a13\u7b49(\u517126\u6236)\u3002", "lat": "22.990184", "lon": "120.242909"}, {"title": "\u540d\u4eba\u5802\u82b1\u5712\u5927\u98ef\u5e97", "address": "\u6843\u5712\u5e02\u9f8d\u6f6d\u5340\u6c11\u751f\u8def141\u5df7150\u865f", "lat": "24.846459", "lon": "121.229391"}, {"title": "\u9999\u5948\u723e\u6c7d\u8eca\u65c5\u9928", "address": "\u65b0\u5317\u5e02\u8606\u6d32\u5340\u9577\u6a02\u8def56\u865f", "lat": "25.086551", "lon": "121.462982"}, {"title": "\u6b61\u6a02\u6eff\u5c4b\u6c11\u5bbf", "address": "\u5b9c\u862d\u7e23\u4e94\u7d50\u9109\u5b5d\u5a01\u8def393\u865f", "lat": "24.699629", "lon": "121.811645"}, {"title": "\u6d04\u703e\u7063\u6c11\u5bbf", "address": "\u82b1\u84ee\u7e23\u5409\u5b89\u9109\u4ec1\u5b89\u6751\u6d77\u6ff115\u865f", "lat": "23.94922996", "lon": "121.60466818"}, {"title": "\u7d19\u98db\u6a5f\u6c11\u5bbf", "address": "\u6f8e\u6e56\u7e23\u99ac\u516c\u5e02\u8208\u4ec1\u91cc10\u9130\u96d9\u982d\u639b272\u865f", "lat": "23.56622492", "lon": "119.57877553"}, {"title": "\u6f01\u57d5\u6c11\u5bbf", "address": "\u5c4f\u6771\u7e23\u7409\u7403\u9109\u4e09\u6c11\u8def19\u865f", "lat": "22.344376", "lon": "120.386815"}, {"title": "\u963f\u65c5\u5df4\u5df4\u6c11\u5bbf", "address": "\u5b9c\u862d\u7e23\u7f85\u6771\u93ae\u5fe0\u5b5d\u65b0\u6751124\u865f", "lat": "24.688278", "lon": "121.753262"}, {"title": "\u5bcc\u8389\u5ead\u7de3\u6c11\u5bbf", "address": "\u5357\u6295\u7e23\u57d4\u91cc\u93ae\u9e92\u9e9f\u91cc5\u9130\u6b66\u754c\u8def38\u865f", "lat": "23.924573", "lon": "121.006307"}, {"title": "\u60c5\u4eba\u8c37\u6c11\u5bbf", "address": "\u81fa\u4e2d\u5e02\u8c50\u539f\u5340\u6771\u967d\u91cc\u6771\u967d\u8def\u6e05\u8c37\u5df71\u865f", "lat": "24.225288", "lon": "120.757666"}, {"title": "\u5927\u6210\u65c5\u793e", "address": "\u5b9c\u862d\u7e23\u5b9c\u862d\u5e02\u65b0\u6c11\u8def31\u300133\u300135\u865f1-5\u6a13", "lat": "24.756432", "lon": "121.757494"}, {"title": "\u6d77\u90fd\u65c5\u793e", "address": "\u65b0\u5317\u5e02\u8ca2\u5bee\u5340\u798f\u9686\u91cc\u798f\u9686\u885725\u865f", "lat": "24.756432", "lon": "121.757494"}, {"title": "\u512a\u6bd4\u7684\u5bb6\u6c11\u5bbf", "address": "\u82b1\u84ee\u7e23\u82b1\u84ee\u5e02\u570b\u806f\u91cc\u570b\u8208\u516d\u885713\u865f", "lat": "23.98734063", "lon": "121.59901549"}, {"title": "\u6843\u82b1\u5712\u6c11\u5bbf", "address": "\u65b0\u7af9\u7e23\u4e94\u5cf0\u9109\u5927\u9698\u6751\u8305\u5703471-6\u865f", "lat": "24.596146", "lon": "121.096307"}, {"title": "\u767c\u73fe\u6a39\u6e56\u6c11\u5bbf", "address": "\u82b1\u84ee\u7e23\u58fd\u8c50\u9109\u6a39\u6e56\u6751\u5927\u6e56\u89d21-1\u865f", "lat": "23.835734", "lon": "121.47581"}, {"title": "\u798f\u9e7f\u6c11\u5bbf", "address": "\u81fa\u6771\u7e23\u5351\u5357\u9109\u521d\u9e7f\u675112\u9130\u521d\u9e7f\u4e09\u885725\u865f", "lat": "22.8591223", "lon": "121.0911612"}, {"title": "\u4e9e\u90fd\u9e97\u7dfb\u5927\u98ef\u5e97", "address": "\u81fa\u5317\u5e02\u4e2d\u5c71\u5340\u6c11\u6b0a\u6771\u8def2\u6bb541\u865f", "lat": "25.062791", "lon": "121.530008"}, {"title": "\u982d\u57ce\u4f11\u9592\u65c5\u9928", "address": "\u5b9c\u862d\u7e23\u982d\u57ce\u93ae\u66f4\u65b0\u8def125-2\u865f", "lat": "24.907753", "lon": "121.85226"}, {"title": "\u6749\u677f\u706310\u865f\u7279\u8272\u6c11\u5bbf", "address": "\u5c4f\u6771\u7e23\u7409\u7403\u9109\u809a\u4ed4\u576a\u8def2-10\u865f", "lat": "22.342945", "lon": "120.365079"}, {"title": "\u4e2d\u83ef\u5178\u85cf\u5546\u65c5", "address": "\u81fa\u6771\u7e23\u81fa\u6771\u5e02\u4e2d\u83ef\u8def1\u6bb5420\u865f", "lat": "22.7534904", "lon": "121.1522985"}, {"title": "\u65e5\u6708\u8ac7\u6c34\u4e4b\u9053\u6c11\u5bbf", "address": "\u5357\u6295\u7e23\u9b5a\u6c60\u9109\u9b5a\u6c60\u6751\u74ca\u6587\u5df718\u4e4b23\u865f", "lat": "23.898246", "lon": "120.936024"}, {"title": "\u79be\u9801\u5c4b\u4e2d\u8208\u9928B\u68df\u6c11\u5bbf", "address": "\u82b1\u84ee\u7e23\u745e\u7a57\u9109\u745e\u7f8e\u6751\u4e2d\u8208\u8def63\u5df73\u865f", "lat": "23.494431", "lon": "121.380323"}, {"title": "\u6708\u76f8\u60c5\u5883\u4f11\u9592\u65c5\u9928", "address": "\u81fa\u5357\u5e02\u5b78\u7532\u5340\u83ef\u5b97\u8def152\u865f", "lat": "23.224165", "lon": "120.183815"}, {"title": "\u52dd\u5b891\u865f\u6c11\u5bbf", "address": "\u82b1\u84ee\u7e23\u5409\u5b89\u9109\u52dd\u5b89\u6751\u52dd\u5b89\u4e00\u885746\u4e4b1\u865f", "lat": "23.975988", "lon": "121.58994"}, {"title": "\u6f8e\u6e56\u7063\u6c11\u5bbf", "address": "\u6f8e\u6e56\u7e23\u99ac\u516c\u5e02\u6771\u885b\u91cc43\u4e4b1\u865f", "lat": "23.563689", "lon": "119.560153"}, {"title": "\u7da0\u91ce\u6751\u5c71\u838a\u6c11\u5bbf", "address": "\u65b0\u5317\u5e02\u745e\u82b3\u5340\u975c\u5b89\u8def4\u6bb556\u5df76\u865f", "lat": "25.102159", "lon": "121.793478"}, {"title": "\u5343\u6210\u6e6f\u6d77", "address": "\u81fa\u6771\u7e23\u6210\u529f\u93ae\u4fe1\u7fa9\u91cc9\u9130\u90fd\u6b77\u65b0\u6751\u8def2-3\u865f", "lat": "23.10024223", "lon": "121.37938431"}, {"title": "\u798f\u5eec\u6c11\u5bbf", "address": "\u5b9c\u862d\u7e23\u4e09\u661f\u9109\u5927\u96b1\u6751\u5927\u96b116\u8def282\u865f", "lat": "24.67319999", "lon": "121.70773054"}, {"title": "\u6d1b\u7881\u5927\u98ef\u5e97\u6797\u68ee\u9928", "address": "\u81fa\u5317\u5e02\u4e2d\u5c71\u5340\u6797\u68ee\u5317\u8def617\u865f1\u81f310\u6a13", "lat": "25.066831", "lon": "121.525831"}, {"title": "\u8b80\u597d\u6c11\u5bbf", "address": "\u5357\u6295\u7e23\u9b5a\u6c60\u9109\u982d\u793e\u6751\u5e73\u548c\u5df7100-6\u865f", "lat": "23.835329", "lon": "120.904721"}, {"title": "\u4e2d\u570b\u57ce\u8336\u85dd\u6c11\u5bbf", "address": "\u5357\u6295\u7e23\u9e7f\u8c37\u9109\u521d\u9109\u6751\u4e2d\u6b63\u8def\u4e09\u6bb546\u5df720\u865f", "lat": "23.758002", "lon": "120.742903"}, {"title": "\u6200\u6200\u6953\u60c5\u6c11\u5bbf", "address": "\u82b1\u84ee\u7e23\u82b1\u84ee\u5e02\u570b\u5b89\u91cc\u660e\u5fc3\u88571-35\u865f", "lat": "23.98490141", "lon": "121.60542186"}, {"title": "\u767d\u91d1\u6f22\u5bae\u6c11\u5bbf", "address": "\u82b1\u84ee\u7e23\u65b0\u57ce\u9109\u5317\u57d4\u6751\u5fa9\u8208\u8def329\u5df71\u865f", "lat": "24.034437", "lon": "121.601889"}, {"title": "\u5e78\u798f\u6a02\u6c11\u5bbf", "address": "\u5c4f\u6771\u7e23\u7409\u7403\u9109\u6749\u677f\u8def67\u865f", "lat": "22.339964", "lon": "120.366666"}, {"title": "\u6eaa\u7554\u8001\u6a39\u5c71\u838a", "address": "\u81fa\u5357\u5e02\u767d\u6cb3\u5340\u95dc\u5dba\u91cc\u95dc\u5b50\u5dba35\u865f", "lat": "23.337007", "lon": "120.503062"}, {"title": "\u61f7\u820a\u53e4\u539d-\u963f\u90ce\u7684\u5bb6\u6c11\u5bbf", "address": "\u5609\u7fa9\u7e23\u6885\u5c71\u9109\u745e\u91cc\u67513\u9130\u5e7c\u8449\u679776\u865f", "lat": "23.537382", "lon": "120.671815"}, {"title": "\u83ab\u5167\u82b1\u5712\u6c11\u5bbf", "address": "\u82b1\u84ee\u7e23\u58fd\u8c50\u9109\u6c60\u5357\u6751\u6797\u5712\u8def3-2\u865f", "lat": "23.922551", "lon": "121.505129"}, {"title": "\u798f\u5eb7\u5927\u98ef\u5e97", "address": "\u81fa\u6771\u7e23\u81fa\u6771\u5e02\u66f4\u751f\u8def50\u5df728\u865f1-7\u6a13", "lat": "22.7568653", "lon": "121.1510751"}, {"title": "\u61a8\u5409\u828b\u982d\u6c11\u5bbf", "address": "\u6f8e\u6e56\u7e23\u6e56\u897f\u9109\u9f0e\u7063\u67511\u9130\u9f0e\u70639\u4e4b1\u865f", "lat": "23.59206", "lon": "119.617395"}, {"title": "\u6085\u8c6a\u5927\u98ef\u5e97", "address": "\u65b0\u7af9\u7e23\u7af9\u5317\u5e02\u4fe1\u7fa9\u88577\u865f", "lat": "24.83615", "lon": "121.0095"}, {"title": "\u65c5\u4eba\u9a5b\u7ad9\u9435\u82b1\u6587\u5275\u9928", "address": "\u81fa\u6771\u7e23\u81fa\u6771\u5e02\u4e2d\u5c71\u8def402\u865f1-6\u6a13", "lat": "22.7529097", "lon": "121.1474688"}, {"title": "\u53f0\u5317\u897f\u9580\u753a\u610f\u820d\u9152\u5e97", "address": "\u81fa\u5317\u5e02\u842c\u83ef\u5340\u6b66\u660c\u8857\u4e8c\u6bb577\u865f5-10\u6a13", "lat": "25.045015", "lon": "121.505711"}, {"title": "\u85dd\u8853\u5df4\u9ece\u6c11\u5bbf", "address": "\u82d7\u6817\u7e23\u5357\u5e84\u9109\u5357\u6c5f\u67515\u9130\u6771\u6c5f91\u865f", "lat": "24.595147", "lon": "121.000929"}, {"title": "\u73ed\u592b\u5c0f\u93ae\u6c11\u5bbf", "address": "\u6f8e\u6e56\u7e23\u99ac\u516c\u5e02\u6771\u885b\u91cc19\u9130\u6771\u885b5\u4e4b7\u865f", "lat": "23.570388", "lon": "119.598567"}, {"title": "\u5f8c\u5c71\u5713\u5922\u6c11\u5bbf", "address": "\u82b1\u84ee\u7e23\u65b0\u57ce\u9109\u5eb7\u6a02\u6751\u7cbe\u820d\u885788\u5df72-1\u865f", "lat": "24.056382", "lon": "121.603135"}, {"title": "\u52dd\u83ef\u5927\u98ef\u5e97", "address": "\u5357\u6295\u7e23\u4fe1\u7fa9\u9109\u6771\u57d4\u6751\u958b\u9ad8\u5df760\u865f", "lat": "23.562685", "lon": "120.929428"}, {"title": "\u9577\u5d0e\u5927\u98ef\u5e97", "address": "\u5b9c\u862d\u7e23\u7901\u6eaa\u9109\u5fb7\u967d\u8def243\u865f1-6\u6a13", "lat": "24.826459", "lon": "121.764259"}, {"title": "\u5bc4\u5c45\u87f9\u4e4b\u5bb6\u6c11\u5bbf(\u7279\u8272\u6c11\u5bbf)", "address": "\u6f8e\u6e56\u7e23\u99ac\u516c\u5e02\u5c71\u6c34\u91cc212\u865f", "lat": "23.572877", "lon": "119.571194"}, {"title": "\u5bcc\u9091\u5c71\u838a", "address": "\u82d7\u6817\u7e23\u5357\u5e84\u9109\u7530\u7f8e\u67514\u9130\u7530\u7f8e72\u4e4b1\u865f", "lat": "24.61688", "lon": "121.017215"}, {"title": "\u91d1\u9f8d\u6d77\u6085\u5927\u98ef\u5e97", "address": "\u5609\u7fa9\u5e02\u897f\u5340\u6c11\u751f\u5317\u8def130\u865f", "lat": "23.477216", "lon": "120.446595"}, {"title": "\u5357\u7063\u6e21\u5047\u6c11\u5bbf", "address": "\u5c4f\u6771\u7e23\u6046\u6625\u93ae\u5357\u7063\u8def\u6797\u68ee\u5df79-5\u865f", "lat": "21.955941", "lon": "120.769994"}, {"title": "\u9109\u6751\u6545\u4e8b\u65c5\u68e7", "address": "\u81fa\u5357\u5e02\u5b98\u7530\u5340\u897f\u5e84\u91cc4-22\u865f", "lat": "23.19296484", "lon": "120.31542962"}, {"title": "\u677e\u666f\u8fb2\u838a(\u7279\u8272\u6c11\u5bbf)", "address": "\u5357\u6295\u7e23\u57d4\u91cc\u93ae\u5927\u6e73\u91cc\u5927\u6e73\u8def111\u865f", "lat": "23.982401", "lon": "120.977687"}, {"title": "\u5c0f\u800c\u7f8e\u5c45\u5bb6\u6c11\u5bbf", "address": "\u82b1\u84ee\u7e23\u82b1\u84ee\u5e02\u5efa\u548c\u885725\u5df730\u5f043\u865f", "lat": "23.99397016", "lon": "121.57564133"}, {"title": "\u516c\u9928\u5927\u98ef\u5e97", "address": "\u81fa\u6771\u7e23\u7da0\u5cf6\u9109\u516c\u99282-10\u865f1-3\u6a13", "lat": "22.6760029", "lon": "121.4897292"}, {"title": "\u7559\u4e0b\u65c5\u820d\u6c11\u5bbf", "address": "\u5c4f\u6771\u7e23\u6771\u6e2f\u93ae\u8239\u982d\u8def24-78\u865f", "lat": "22.461145", "lon": "120.460779"}, {"title": "\u4e5d\u65cf\u98ef\u5e97", "address": "\u81fa\u6771\u7e23\u5351\u5357\u9109\u6eab\u6cc9\u6751\u6eab\u6cc9\u8def312\u5df72\u865f1\u6a13\u4e4b6", "lat": "22.6984991", "lon": "121.0249869"}, {"title": "\u597d\u9069INN", "address": "\u81fa\u6771\u7e23\u81fa\u6771\u5e02\u4e2d\u83ef\u8def\u4e8c\u6bb5154\u5df796\u865f", "lat": "22.746627", "lon": "121.137344"}, {"title": "\u96c6\u96c6\u8fb2\u5834\u6c11\u5bbf", "address": "\u5357\u6295\u7e23\u96c6\u96c6\u93ae\u96c6\u96c6\u91cc\u74b0\u5c71\u8857270\u5df742\u865f", "lat": "23.838391", "lon": "120.787271"}, {"title": "\u8349\u5dba\u5927\u98ef\u5e97", "address": "\u96f2\u6797\u7e23\u53e4\u5751\u9109\u8349\u5dba\u6751\u8349\u5dba36\u865f", "lat": "23.583169", "lon": "120.693332"}, {"title": "\u611b\u73a9\u5ba2", "address": "\u81fa\u5317\u5e02\u842c\u83ef\u5340\u897f\u5be7\u5357\u8def30\u865f12\u6a13", "lat": "25.045891", "lon": "121.506698"}, {"title": "\u4eca\u53e4\u5b89\u6c11\u5bbf", "address": "\u82b1\u84ee\u7e23\u82b1\u84ee\u5e02\u4e3b\u8a08\u91cc\u91cd\u6176\u8def353\u5df730\u865f", "lat": "23.972644", "lon": "121.608183"}, {"title": "\u82f1\u4ee3\u5927\u98ef\u5e97", "address": "\u81fa\u5357\u5e02\u4e2d\u897f\u5340\u89c0\u4ead\u885781\u865f2-7\u6a13", "lat": "22.997819", "lon": "120.205893"}, {"title": "\u87c0\u54e5\u8fb2\u5bb6\u6c11\u5bbf", "address": "\u5609\u7fa9\u7e23\u516d\u8173\u9109\u516d\u8173\u6751\u516d\u817310\u865f", "lat": "23.50507", "lon": "120.253865"}, {"title": "\u5eb7\u6a4b\u5546\u65c5\u54e1\u6797\u9928", "address": "\u5f70\u5316\u7e23\u54e1\u6797\u5e02\u975c\u4fee\u8def12\u865f5-7\u6a13", "lat": "23.962784", "lon": "120.5726075"}, {"title": "\u65c5\u651d\u6c11\u5bbf", "address": "\u5c4f\u6771\u7e23\u6046\u6625\u93ae\u7701\u5317\u8def40\u5df7109\u5f048\u4e4b1\u865f", "lat": "22.009691", "lon": "120.74753"}, {"title": "\u7687\u51a0\u5546\u52d9\u6c7d\u8eca\u65c5\u9928", "address": "\u6843\u5712\u5e02\u6843\u5712\u5340\u838a\u656c\u8def\u4e00\u6bb5150\u865f", "lat": "25.02569", "lon": "121.30055"}, {"title": "\u661f\u947d\u5927\u98ef\u5e97", "address": "\u5b9c\u862d\u7e23\u5b9c\u862d\u5e02\u5d07\u8056\u885763-2\u865f7-8\u6a13", "lat": "24.756902", "lon": "121.755018"}, {"title": "\u95d5\u9e92\u666f\u89c0\u6c11\u5bbf", "address": "\u5357\u6295\u7e23\u57d4\u91cc\u93ae\u6c34\u982d\u91cc\u6771\u6f64\u8def31\u865f", "lat": "23.93882", "lon": "120.994"}, {"title": "\u5c55\u4e9e\u5546\u52d9\u65c5\u9928", "address": "\u5f70\u5316\u7e23\u6eaa\u6e56\u93ae\u5927\u516c\u8def179\u865f4-7\u6a13", "lat": "23.9618004", "lon": "120.4727665"},