[{"name": "\u8463\u5e2b\u5085\u6709\u9650\u516c\u53f8", "address": "\u82d3\u96c5\u5340\u4e09\u591a\u4e09\u8def214-6\u865f", "store_type": "\u9910\u98f2\u7f8e\u98df", "storediscount": "\u624b\u5de5\u9ebb\u7cec\u76d2\u88dd\u7b2c\u4e8c\u76d2\u534a\u50f9", "lat": "22.614002", "lon": "120.30457"}, {"name": "\u9ebb\u5409\u624b\u5de5\u574a", "address": "\u5de6\u71df\u5340\u88d5\u8aa0\u8def454\u865f", "store_type": "\u9910\u98f2\u7f8e\u98df", "storediscount": "\u624b\u5de5\u9ebb\u7cec\u76d2\u88dd\u7b2c\u4e8c\u76d2\u534a\u50f9", "lat": "22.653847", "lon": "120.293972"}, {"name": "\u548c\u6cf0\u7f8e\u599d\u6709\u9650\u516c\u53f8", "address": "\u65b0\u8208\u5340\u4e2d\u5c71\u4e00\u8def264\u865f", "store_type": "\u6d41\u884c\u6642\u5c1a", "storediscount": "1. \u5168\u9928\u6eff999\u5143\u7acb\u6e1b50\u5143 2. \u4f86\u5e97\u6d88\u8cbb\u4e0d\u73fe\u91d1\u984d\u5373\u8d08\u9ad8\u96c4\u5341\u5927\u5316\u7ca7\u54c1\u4f34\u624b\u79ae-\u8d85\u6f64\u7f8e\u808c\u5b89\u74f6\u7cbe\u83ef\u8a66\u7528\u5305 3. \u9580\u5e02\u4e0a\u5343\u7a2e\u7522\u54c1\uff0c\u71b1\u92b7\u54c1\u53ef\u53c3\u8003\u8766\u76ae\u5546\u57ce-\u548c\u6cf0\u7f8e\u599d\u65d7\u8266\u5e97https://shopee.tw/wyatt760513", "lat": "24.635421", "lon": "121.750068"}, {"name": "\u857e\u7d0d\u570b\u969b\u6709\u9650\u516c\u53f8", "address": "\u524d\u93ae\u5340\u5149\u83ef\u4e09\u8def221\u865f", "store_type": "\u6d41\u884c\u6642\u5c1a", "storediscount": "\u6301\u62b5\u7528\u5238\u5230\u5e97\u5167\u6d88\u8cbb,\u8cfc\u8cb7\u857e\u7d0dB.Lena & Q.Royal\u7f8e\u599d\u54c1,\u6eff\u5343\u5373\u52a0\u8d08Q\u540e\u611b\u819a\u7d30\u5ae9\u9762\u819c(\u50f9\u503c$590)\u4e59\u76d2,\u55ae\u7b46\u6d88\u8cbb\u9650\u4e59\u76d2,\u7f8e\u5bb9\u7f8e\u7532\u8ab2\u7a0b\u9664\u5916.", "lat": "22.608625", "lon": "120.316688"}, {"name": "\u5168\u5b89\u8518\u85e5\u6709\u9650\u516c\u53f8", "address": "\u9cf3\u5c71\u5340\u4e09\u6c11\u8def28\u865f", "store_type": "\u5176\u4ed6", "storediscount": "\u6eff\u4edf\u9001\u8cb7\u6298\u50f9\u5377\uff0c\u53ef\u65bc\u4e0b\u6b21\u62b5\u7528\u6d88\u8cbb", "lat": "24.488962", "lon": "118.413574"}, {"name": "\u76c8\u9999\u5be6\u696d\u6709\u9650\u516c\u53f8", "address": "\u9cf3\u5c71\u5340\u4e2d\u5c71\u6771\u8def136\u5df737\u865f", "store_type": "\u9910\u98f2\u7f8e\u98df", "storediscount": "\u512a\u60e0\u8a73\u898b\u5e97\u5bb6\u5b98\u7db2<a href='https://sparrow-taiwan.com/' target='_blank'>https://sparrow-taiwan.com/</a>", "lat": "23.10093", "lon": "121.381774"}, {"name": "\u6a02\u696d\u751f\u5316\u79d1\u6280\u6709\u9650\u516c\u53f8", "address": "\u82d3\u96c5\u5340\u9752\u5e74\u4e00\u8def29\u865f3\u6a13", "store_type": "\u7f8e\u599d\u4fdd\u990a", "storediscount": "\u512a\u60e0\u671f\u9593\u8207\u5730\u9ede\uff1a109/6/1-109/8/31\u3001\u9ad8\u96c4\u5e02\u82d3\u96c5\u5340\u9752\u5e74\u4e00\u8def29\u865f3\u6a13 \u512a\u60e0\u4e00\uff1a\u9ad8\u96c4\u5341\u5927\u5316\u599d\u54c1\u4f34\u624b\u79ae \u771f\u8377\u6d3b\u819a\u690d\u8403\u6f54\u984f\u7d44\uff0c\u7279\u50f9\uff04999\u5143\uff08\u539f\u50f9\uff041399\u5143\uff0c\u9650\u91cf100\u7d44\uff09 \u512a\u60e0\u4e8c\uff1aBelle Evolve\u8c50\u7f8e\u819a\u994c\u79c1\u5bc6\u4fdd\u990a\u7cfb\u5217 (\u690d\u8403\u79c1\u5bc6\u6f54\u6de8\u4e73$1499\u5143\u3001\u690d\u8403\u79c1\u5bc6\u5475\u8b77\u5674\u9727$1299\u5143\u3001\u79c1\u5bc6\u6ecb\u990a\u51dd\u9732$1780)\uff0c3\u90782\uff0c\u512a\u60e0\u7d44\u5408$2399\u5143(\u9650\u91cf100\u7d44)", "lat": "22.624945", "lon": "120.316933"}, {"name": "\u5c0f\u9ed1\u4eba\u76ae\u978b", "address": "\u9e7d\u57d5\u5340\u4e94\u798f\u56db\u8def231\u865f", "store_type": "\u5176\u4ed6", "storediscount": "\u5168\u9762\u5546\u54c18\u6298\u8d77", "lat": "22.624745", "lon": "120.281426"}, {"name": "\u5b87\u5b99\u4eba\u5546\u884c", "address": "\u65b0\u8208\u5340\u4e2d\u5c71\u4e00\u8def14-1\u865f", "store_type": "\u9910\u98f2\u7f8e\u98df", "storediscount": "\u2605\u6eff\u984d\u8d08 \u8cfc\u7269\u5609\u5e74\u83ef\u7279\u5225\u6d3b\u52d5\uff1a \u4f86\u5e97\u8cfc\u7269\u6eff500\u5143\u5373\u53ef\u514d\u8cbb\u4eab\u7528\u8d85\u7f8e\u5473\u971c\u6dc7\u6dcb\u4e00\u96bb(\u50f9\u503c60\u5143)\uff0c\u6eff1000\u5143\u9001\u5169\u96bb\uff0c\u591a\u8cb7\u591a\u9001 \u512a\u60e0\u671f\u9593\uff1a109\u5e746/1~109\u5e748/31\u6b62 ", "lat": "24.635421", "lon": "121.750068"}, {"name": "\u4ec0\u9ebc\u9cf4\u5802\u5546\u884c", "address": "\u9ce5\u677e\u5340\u5927\u83ef\u91cc\u7403\u5834\u8def63\u865f", "store_type": "\u9910\u98f2\u7f8e\u98df", "storediscount": "\u6eff\u984d\u8d08-\u8cfc\u7269\u5609\u5e74\u83ef\u7279\u5225\u6d3b\u52d5\uff1a \u4f86\u5e97\u8cfc\u7269\u6eff500\u5143\uff0c\u5373\u53ef\u514d\u8cbb\u4eab\u7528\u706b\u661f\u7cd6\u7279\u88fd\u971c\u6dc7\u6dcb1\u96bb(\u50f9\u503c60\u5143)\uff0c\u6eff1,000\u5143\u90012\u96bb\uff0c\u591a\u8cb7\u591a\u9001\u3002 \u512a\u60e0\u671f\u9593\uff1a109\u5e746/1~109\u5e748/31\u6b62", "lat": "22.655007", "lon": "120.334916"}, {"name": "\u7da0\u83cc\u661f\u570b\u969b\u6709\u9650\u516c\u53f8", "address": "\u9cf3\u5c71\u5340\u6587\u6a02\u885760\u865f", "store_type": "\u5c45\u5bb6\u751f\u6d3b", "storediscount": "\u6d3b\u52d5\u4e00\uff1a\u8cfc\u8cb7\u4e0b\u5217\u9752\u6ab8\u60a0\u6d3b\u6ab8\u6aac\u9175\u7d20\u5168\u7cfb\u5217\u5546\u54c1\u4e00\u5f8b\u4eab\u516b\u6298\u512a\u60e0 A.\u9752\u6ab8\u55ae\u74f6\u88dd(250ml/1\u74f6)\uff1a(\u539f\u50f9750\u5143/\u74f6)\uff0c\u7279\u5225\u512a\u60e0\u50f9600\u5143\u3002 B.\u9752\u6ab8\u79ae\u76d2\u7d44(2\u5165/\u76d2)/(250ml/1\u74f6)\uff1a(\u539f\u50f91500\u5143/\u74f6)\uff0c\u7279\u5225\u512a\u60e0\u50f91200\u5143\u3002 C.\u60a0\u6d3b\u65c5\u884c\u7d44(5\u5165/\u76d2)/(50ml/1\u74f6)\uff1a(\u539f\u50f9900\u5143/\u74f6)\uff0c\u7279\u5225\u512a\u60e0\u50f9720\u5143\u3002 \u6d3b\u52d5\u4e8c\uff1a\u8cfc\u8cb7B.\u9752\u6ab8\u79ae\u76d2\u7d44(2\u5165/\u76d2) (250ml/\u74f6)\uff0c\u518d\u52a0\u8d08\u65b0\u7522\u54c1\u60a0\u6d3b\u65c5\u884c1\u74f6(50ml/\u74f6)\uff0c\u8cb7\u591a\u9001\u591a\uff0c\u6a5f\u6703\u96e3\u5f97! \u8a3b\uff1a\u512a\u60e0\u671f\u9593\uff1a109\u5e746\u67081\u65e5\u81f3109\u5e748\u670831\u65e5\u6b62\u3002\u6d3b\u52d5\u5730\u9ede\uff1a\u9ad8\u96c4\u5e02\u9cf3\u5c71\u5340\u6587\u5c71\u7279\u5340\u5546\u5708\u3002", "lat": "22.645796", "lon": "120.348025"}, {"name": "\u88d5\u8cc0\u725b\u89c0\u5149\u5de5\u5ee0", "address": "\u71d5\u5de2\u5340\u5927\u4ec1\u8def68\u865f", "store_type": "\u89c0\u5149\u5de5\u5ee0", "storediscount": "\u4e00\u3001\u6d3b\u52d5\u5730\u9ede\uff1a\u88d5\u8cc0\u725b\u89c0\u5149\u5de5\u5ee0-\u9928\u5167\u73fe\u5834\u9069\u7528 \u4e8c\u3001\u512a\u60e0\u671f\u9593\uff1a109/6/1-8/31 \u4e09\u3001\u512a\u60e0\u6d3b\u52d5\uff1a \u6301\u6d3b\u52d5\u8b49\u660e\uff1a (1)\u7576\u65e5\u9910\u98f2\u6d88\u8cbb\u55ae\u7b46\u767c\u7968\u6eff600\u5143\u4ee5\u4e0a\uff0c\u514d\u8cbb\u62db\u5f85\u300c\u9ad8\u96c4\u65d7\u5c71\u9999\u8549\u51b0\u6dc7\u6dcb\u300d\u4e59\u676f(\u50f9\u503c60\u5143)\u3002 (2)\u52a0\u5165\u88d5\u8cc0\u725bFB\u7c89\u7d72\u5718+\u6253\u5361\uff0c\u5373\u8d08\u300c\u5168\u725b\u6559\u5ba4\u5169\u4eba\u540c\u884c\u4e00\u4eba\u514d\u8cbb\u5238\u300d\u4e59\u5f35(\u50f9\u503c250\u5143)\u3002\u6bcf\u4eba\u9650\u9818\u4e00\u5f35\uff0c\u9700\u51fa\u793a\u756b\u9762\u7d66\u9928\u5167\u5925\u4f34\uff0c\u7576\u65e5\u6559\u5ba4\u82e5\u6709\u958b\u8ab2\u5373\u53ef\u76f4\u63a5\u4f7f\u7528! (3)\u65bc\u5e02\u96c6\u5340\u8cfc\u8cb7\u8089\u54c1\u6eff3,500\u5143\u4ee5\u4e0a\uff0c\u4eab\u514d\u8cbb\u51b7\u51cd\u5b85\u914d\u5230\u5e9c\u3002", "lat": "22.757294", "lon": "121.133351"}, {"name": "\u4e2d\u5916\u9905\u8216\u5e87\u8b77\u5de5\u5834", "address": "\u5de6\u71df\u5340\u84ee\u6f6d\u8def60-1\u865f", "store_type": "\u9910\u98f2\u7f8e\u98df", "storediscount": "\u6eff\u984d\u79ae\uff1a\u6eff500\u5143\u9001\u9ad8\u5c71\u70cf\u9f8d\u8336+\u68cb\u9905\u4e00\u7c92(\u69ae\u7372\u9ad8\u96c4\u5341\u5927\u4f34\u624b\u79ae) \u63d0\u4f9b\u5730\u9ede\uff1a\u9ad8\u96c4\u5e02\u5de6\u71df\u5340\u84ee\u6f6d\u8def60-1\u865f \u512a\u60e0\u671f\u9593\uff1a109\u5e746\u67081\u65e5\u81f3110\u5e746\u67081\u65e5\u6b62", "lat": "22.685109", "lon": "120.295109"}, {"name": "\u4e2d\u5916\u9905\u8216", "address": "\u5de6\u71df\u5340\u5de6\u71df\u5927\u8def98\u865f", "store_type": "\u9910\u98f2\u7f8e\u98df", "storediscount": "\u6eff\u984d\u79ae\uff1a\u6eff500\u5143\u9001\u91d1\u724c\u9cf3\u68a8\u91652\u7c92 \u63d0\u4f9b\u5730\u9ede\uff1a\u9ad8\u96c4\u5e02\u5de6\u71df\u5340\u5de6\u71df\u5927\u8def98\u865f \u512a\u60e0\u671f\u9593\uff1a109\u5e746\u67081\u65e5\u81f3110\u5e746\u67081\u65e5\u6b62", "lat": "22.671648", "lon": "120.286523"}, {"name": "\u5c0f\u838a\u98ef\u9eb5\u7f8e\u98df\u9928 (\u7f8e\u6fc3\u5546\u5708)", "address": "\u7f8e\u6fc3\u5340\u7f8e\u8208\u885741-4\u865f", "store_type": "\u9910\u98f2\u7f8e\u98df", "storediscount": null, "lat": "22.901369", "lon": "120.539208"}, {"name": "\u6771\u65b9\u8349\u672c\u570b\u969b\u7522\u696d\u6709\u9650\u516c\u53f8", "address": "\u4e09\u6c11\u5340\u7d8f\u9060\u4e00\u885784\u865f", "store_type": "\u5c45\u5bb6\u751f\u6d3b", "storediscount": "\u4e00\u3001\u5546\u54c1\u540d\u7a31\uff1a\u856d\u5948\u5948,\u716e\u716e\u85e5\u81b3,\u9ad4\u9a57\u798f\u888b! \u4e8c\u3001\u5546\u54c1\u660e\u7d30\uff1a\u6771\u65b9\u8349\u672c\u6dbc\u8336\u5373\u98df\u5305*3\u5305,\u71d2\u9152\u96de\u85e5\u81b3\u5305*2,\u5589\u8cfd\u96f7*1\u5305, \u7d14\u6b63\u80e1\u6912\u7c8950g,\u52a0\u5143\u6c23,\u6e1b\u706b\u6c23,\u9664\u6ebc\u6c23,\u4e58\u8840\u6c23\u56db\u7a2e\u8336\u5305(\u9ad4\u9a57\u5305)\u54041\u5305, \u4e09\u3001\u512a\u60e0\u985e\u5225\uff1a\u4e00\u888b499\uff0c\u6578\u91cf100\u7d44\u3002 \u56db\u3001\u50f9\u683c\uff1a499\u5143 \u4e94\u3001\u63d0\u4f9b\u5730\u9ede\uff1a(\u52d9\u5fc5\u4f86\u96fb\u9810\u7d04)\uff1b\u89aa\u53d6\u81f3\u9ad8\u96c4\u5e02\u4e09\u6c11\u5340\u7d8f\u9060\u4e00\u885784\u865f\u6216\u5b85\u914d\u3002", "lat": "22.648936", "lon": "120.303446"}, {"name": "\u74a6\u85cf\u98fe\u54c1", "address": "\u65b0\u8208\u5340\u6c11\u751f\u4e00\u8def380\u865f", "store_type": "\u6d41\u884c\u6642\u5c1a", "storediscount": "\u9ad8\u96c4\u5e97109\u5e746\u67081\u65e5\u81f38\u670831\u65e5\u6b62\u5168\u9928\u98fe\u54c1\uff0c\u6bcf\u4e00\u9805\u98fe\u54c1\u53ef\u9078\u64c7\uff0c\u512a\u60e0\u62b5\u7528\u5377(50\u5143)\u6e1b\u514d\u4e59\u6b21\uff0c\u53e6\u6d88\u8cbb\u91d1\u984d\u6eff3000\u5143\u518d\u4eab8.8\u6298\u512a\u60e0\u3002", "lat": "22.626515", "lon": "120.301407"}, {"name": "\u5a01\u9f4a\u7e54\u54c1\u79d1\u6280\u6709\u9650\u516c\u53f8", "address": "\u9cf3\u5c71\u5340\u6587\u9f8d\u6771\u8def33\u865f", "store_type": "\u89c0\u5149\u5de5\u5ee0", "storediscount": "\u4e00\u3001\u5546\u54c1\u540d\u7a31\uff1aT\u6064\u624b\u4f5c\u9ad4\u9a57\u8ab2\u7a0b \u4e8c\u3001\u512a\u60e0\u985e\u5225\uff1a\u51e1\u5831\u540d\u4efb\u4e00\u9ad4\u9a57\u8ab2\u7a0b\uff0c\u5373\u53ef\u4f7f\u752850\u5143\u62b5\u7528\u5377\uff0c\u6298\u62b5\u8ab2\u7a0b\u8cbb\u7528\u3002 \u4e09\u3001\u512a\u60e0\u671f\u9593\uff1a109\u5e746\u67081\u65e5-109\u5e748\u670831\u65e5 \u56db\u3001\u63d0\u4f9b\u5730\u9ede\uff1aT\u6064\u624b\u9020\u9928(\u9ad8\u96c4\u5e02\u9cf3\u5c71\u5340\u6587\u9f8d\u6771\u8def33\u865f)", "lat": "22.641958", "lon": "120.356254"}, {"name": "\u559c\u61a8\u5152\u751f\u6a5f\u597d\u934b-\u5fa9\u8208\u5e97", "address": "\u65b0\u8208\u5340\u5fa9\u8208\u4e8c\u8def286\u865f", "store_type": "\u9910\u98f2\u7f8e\u98df", "storediscount": "\u934b\u7269/\u4f34\u624b\u79ae/\u559c\u9905\u7b49\u81ea\u88fd\u54c1\u7686\u53ef\u62b5\u7528", "lat": "24.707371", "lon": "121.78113"}, {"name": "\u559c\u61a8\u5152PASTA", "address": "\u82d3\u96c5\u5340\u5c1a\u79ae\u885733\u865f", "store_type": "\u9910\u98f2\u7f8e\u98df", "storediscount": "\u5e97\u5167\u9910\u9ede/\u9eb5\u5305/\u86cb\u7cd5/\u79ae\u76d2\u6d88\u8cbb\u7686\u53ef\u62b5\u7528", "lat": "22.873241", "lon": "120.192405"}, {"name": "\u559c\u61a8\u5152\u7da0\u91ce\u9999\u8e64", "address": "\u4e09\u6c11\u5340\u6cb3\u5824\u8def682\u865f", "store_type": "\u9910\u98f2\u7f8e\u98df", "storediscount": "\u5e97\u5167\u9910\u9ede/\u9eb5\u5305/\u86cb\u7cd5/\u79ae\u76d2\u6d88\u8cbb\u7686\u53ef\u62b5\u7528", "lat": "24.859203", "lon": "121.826455"}, {"name": "\u559c\u6b61\u4f60\u5496\u5561\u9ad8\u96c4\u5e02\u5e9c\u5e97", "address": "\u82d3\u96c5\u5340\u56db\u7dad\u4e09\u8def2\u865f", "store_type": "\u9910\u98f2\u7f8e\u98df", "storediscount": "\u98f2\u54c1/\u86cb\u7cd5/\u9910\u9ede/\u79ae\u76d2\u4ee5\u4e0a\u81ea\u88fd\u54c1\u7686\u53ef\u62b5\u7528", "lat": "22.617007", "lon": "120.303443"}, {"name": "\u9189\u725b\u725b\u8089\u9eb5", "address": "\u4e09\u6c11\u5340\u6b63\u8208\u8def107\u865f", "store_type": "\u9910\u98f2\u7f8e\u98df", "storediscount": null, "lat": "24.688077", "lon": "120.918717"}, {"name": "\u746a\u8389\u6843\u6843", "address": "\u4e09\u6c11\u5340\u660e\u4ec1\u8def51\u865f2\u6a13", "store_type": "\u9910\u98f2\u7f8e\u98df", "storediscount": null, "lat": "24.994206", "lon": "121.338537"}, {"name": "\u7051\u6912\u3002\u9ebb\u8fa3\u9d1b\u9d26\u934b", "address": "\u4e09\u6c11\u5340\u660e\u54f2\u8def33\u865f", "store_type": "\u9910\u98f2\u7f8e\u98df", "storediscount": "\u6d88\u8cbb85\u6298", "lat": "22.661106", "lon": "120.314233"}, {"name": "\u4e00\u5bb6\u5de5\u5834", "address": "\u9cf3\u5c71\u5340\u570b\u6cf0\u8def\u4e00\u6bb569\u5df71\u865f", "store_type": "\u5176\u4ed6", "storediscount": "1.\u661f\u7a7a\u5e78\u798f+\u86cb\u6372\u9435\u76d2(\u7d9c\u5408\u5c0f\u8fb2)---\u5169\u4ef685\u62982.\u661f\u7a7a\u5e78\u798f+\u86cb\u6372\u9435\u76d2(\u7d9c\u5408\u7d93\u5178)---\u5169\u4ef685\u6298", "lat": "22.616128", "lon": "120.35346"}, {"name": "\u822a\u7a7a\u6559\u80b2\u5c55\u793a\u9928", "address": "\u5ca1\u5c71\u5340\u81f4\u9060\u8def55\u865f", "store_type": "\u5176\u4ed6", "storediscount": null, "lat": "22.795256", "lon": "120.275591"}, {"name": "\u53f0\u7063\u6ef7\u5473\u535a\u7269\u9928", "address": "\u5ca1\u5c71\u5340\u672c\u5de5\u4e00\u8def25\u865f", "store_type": "\u89c0\u5149\u5de5\u5ee0", "storediscount": "\u6191\u632f\u8208\u5238\u6d88\u8cbb\u52a0\u8d08\u4e94\u9999\u8fa3\u8c46\u4e01\u4e00\u5305(\u55ae\u7b46\u6d88\u8cbb\u9650\u8d08\u4e00\u6b21)", "lat": "22.816207", "lon": "120.264167"}, {"name": "FLOMO\u5bcc\u6a02\u5922\u89c0\u5149\u5de5\u5ee0", "address": "\u6e56\u5167\u5340\u4e2d\u5c71\u8def\u4e8c\u6bb542\u865f", "store_type": "\u89c0\u5149\u5de5\u5ee0", "storediscount": "\u632f\u8208\u5238\u5168\u9928\u7686\u53ef\u62b5\u7528\u7279\u5225\u52a0\u78bc\uff0c\u4f7f\u7528\u632f\u8208\u5238\u8cfc\u8cb7\u96d9\u958b\u7b46\u76d2DIY($100)\uff0c\u52a0\u8d08\u624b\u4f5c\u6a61\u76ae\u64e6DIY($50)", "lat": "24.376477", "lon": "120.652763"}, {"name": "\u4e0d\u8001\u677e\u5065\u5eb7\u4e8b\u696d\u6709\u9650\u516c\u53f8", "address": "\u524d\u91d1\u5340\u6cb3\u6771\u8def2\u865f", "store_type": "\u65c5\u904a\u4f11\u61a9", "storediscount": null, "lat": "24.763239", "lon": "121.759069"}, {"name": "\u570b\u65d7\u5973\u5b69", "address": "\u5de6\u71df\u5340\u83ef\u590f\u8def763\u865f", "store_type": "\u767e\u8ca8\u5546\u57ce", "storediscount": "1\u3001\u8cfc\u8cb7$100\u5143\uff0c\u8d08\u9001\u4e00\u5f35\u570b\u65d7\u8cbc\u7d19\u6216\u7d0b\u8eab\u8cbc\u30022\u3001\u8cfc\u8cb7$300\u5143\uff0c\u8d08\u9001\u7d00\u5ff5\u80f8\u7ae0\u6216\u93e1\u5b50\u9396\u5708\u4e00\u500b\u30023\u3001\u8cfc\u8cb7$500\u5143\uff0c\u8d08\u90013D\u7acb\u9ad4\u570b\u65d7\u53e3\u7f69\u4e00\u500b\u30024\u3001\u8cfc\u8cb7$1000\u5143\uff0c\u8d08\u9001\u570b\u65d7\u7d19\u888b\u4e00\u500b\u30025\u3001\u8cfc\u8cb7$2000\u5143\uff0c\u4e5d\u6298\u512a\u60e0\u3002\u672c\u512a\u60e0\u6d3b\u52d5\uff5e\u50c5\u9650\u570b\u65d7\u5973\u5b69\u611b\u570b\u7e3d\u5e97", "lat": "24.68354", "lon": "120.88205"}, {"name": "\u559c\u6b61\u4f60\u5496\u5561", "address": "\u82d3\u96c5\u5340\u5c1a\u79ae\u885733\u865f", "store_type": "\u9910\u98f2\u7f8e\u98df", "storediscount": "\u5e97\u5167\u9910\u9ede/\u9eb5\u5305/\u86cb\u7cd5/\u79ae\u76d2\u7686\u53ef\u6298\u62b5\u4f7f\u7528", "lat": "22.873241", "lon": "120.192405"}, {"name": "\u6e56\u7554\u5496\u5561\u5c4b", "address": "\u9ce5\u677e\u5340\u5927\u57e4\u8def127\u865f1F&11F", "store_type": "\u9910\u98f2\u7f8e\u98df", "storediscount": "\u6d88\u8cbb\u6eff\u767e\u5143\u8d08\u5c0f\u676f\u51ac\u74dc\u8336\u4e00\u676f", "lat": "24.650125", "lon": "121.731101"}, {"name": "\u9ad8\u96c4\u5de5\u5834", "address": "\u9cf3\u5c71\u5340\u9cf3\u4ec1\u8def97-69\u865f", "store_type": "\u9910\u98f2\u7f8e\u98df", "storediscount": null, "lat": "22.636324", "lon": "120.37056"}, {"name": "\u6253\u72d7\u9905\u8216", "address": "\u82d3\u96c5\u5340\u4e2d\u6b63\u4e00\u8def135\u865f", "store_type": "\u5176\u4ed6", "storediscount": "\u72d7\u5361\u9f8d\u8cb75\u90011", "lat": "23.967245", "lon": "120.963429"}, {"name": "To Be Smoothie\u7da0\u679c\u6614", "address": "\u82d3\u96c5\u5340\u548c\u5e73\u4e00\u8def98\u865f", "store_type": "\u9910\u98f2\u7f8e\u98df", "storediscount": "\u5168\u5e97\u5546\u54c1\u7686\u53ef\u62b5\u7528", "lat": "22.619665", "lon": "120.322069"}, {"name": "\u9ad8\u96c4\u5e02\u6893\u5b98\u5340\u6f01\u6703\u9580\u5e02\u5c55\u552e\u4e2d\u5fc3", "address": "\u6893\u5b98\u5340\u6f01\u6e2f\u4e8c\u8def32\u865f", "store_type": "\u9910\u98f2\u7f8e\u98df", "storediscount": "1.\u70cf\u9b5a\u5b50\u4e00\u53e3\u5207(3\u5169)\u8cb7\u4e8c\u9001\u4e002.\u8584\u9e7d\u9bd6\u9b5a\u72475\u7247350\u5143(\u539f\u50f980\u5143/\u7247)3.\u6f8e\u6e56\u51b0\u5377\u8cb7\u4e8c\u9001\u4e00(\u539f\u50f9200\u5143/\u5305)4.\u53f0\u7259\u9b5a\u6574\u5c3e\u8cb7\u4e00\u9001\u4e00(\u539f\u50f9260\u5143/\u5305)5.\u82b1\u679d\u689d\u8cb7\u4e00\u9001\u4e00(\u539f\u50f92000/\u76d2)6.\u88f9\u7c89\u9b5a\u689d\u642d\u914d\u82b1\u679d\u8766\u6392\u7d44\u5408\u50f9260\u51437.\u77f3\u73ed\u9b5a\u982d\u9aa8\u4e01\u8cb7\u4e8c\u9001\u4e00(\u539f\u50f9150\u5143/\u5305)8.\u51e1\u8cfc\u8cb7\u672c\u6703\u5546\u54c1\uff0c\u53ef\u52a0\u8cfc\u9b69\u4ed4\u9b5a\u9bae\u83c7\u7cd9\u7c73\u7ca5(\u88f8\u5305)(\u539f\u50f9120\u5143/\u5305)", "lat": "22.726832", "lon": "120.255234"}, {"name": "\u963f\u56c9\u54c8\u6ef7\u5473", "address": "\u9e7d\u57d5\u5340\u5927\u4ec1\u8def156\u5df73\u865f", "store_type": "\u9910\u98f2\u7f8e\u98df", "storediscount": "\u8cfc\u8cb7\u6d3e\u5c0d\u7d44\u5408\u5927\u6ef7\u5473\u676f(180\u5143) +\u5c0f\u6ef7\u5473\u676f (60\u5143)\uff08\u539f\u50f9240\u5143\u512a\u60e0\u50f9\u53ea\u8981200\u5143\uff09", "lat": "22.757294", "lon": "121.133351"}, {"name": "\u4e00\u5c71\u6c90\u5496\u5561\u5c4b", "address": "\u8302\u6797\u5340\u591a\u7d0d\u91cc6\u4e4b6\u865f", "store_type": "\u9910\u98f2\u7f8e\u98df", "storediscount": "1.\u6301\u62b5\u7528\u5238\u5747\u53ef\u62b5\u7528\u672c\u5e97\u611b\u7389\u51b0\u3001\u5404\u9805\u5496\u5561\u54c1\u9805\u30022.\u51e1\u6d88\u8cbb\u6eff1000\u5143\u8d08\u9001\u639b\u6735\u5f0f\u5496\u55611\u5305\u30023.\u611b\u7389\u51b0\u8cb710\u676f\u9664\u4f7f\u7528\u62b5\u7528\u523850\u5143\u5916\uff0c\u52a0\u90011\u676f\u3002", "lat": "23.975744", "lon": "120.979772"}, {"name": "\u5b8f\u88d5\u884c\u82b1\u679d\u4e38\u9928", "address": "\u524d\u93ae\u5340\u65b0\u751f\u8def240\u865f", "store_type": "\u89c0\u5149\u5de5\u5ee0", "storediscount": "\u624b\u5de5\u7d93\u5178\u4f34\u624b\u79ae\u7d44\u5408(\u9802\u7d1a\u5494\u6ecb\u8766\u9905\u539f\u5473\u3001\u9802\u7d1a\u5494\u6ecb\u8766\u9905\u58a8\u9b5a\u53e3\u5473\u3001\u7d14\u624b\u5de5\u9999\u6fc3\u8d77\u53f8\u68d2\u539f\u5473\u3001\u7d14\u624b\u5de5\u9999\u6fc3\u8d77\u53f8\u68d2\u58a8\u9b5a\u53e3\u5473)\u6578\u91cf:5\u4efd", "lat": "23.56745", "lon": "119.567917"}, {"name": "\u5f6a\u7425\u978b\u696d\u6709\u9650\u516c\u53f8", "address": "\u9ad8\u96c4\u5e02\u4e09\u6c11\u5340\u6c11\u65cf\u4e00\u8def335\u5df743-1\u865f", "store_type": "\u89c0\u5149\u5de5\u5ee0", "storediscount": "6/1\uff5e8/31\uff0c\u978b\u6b3e\u5168\u97626 \u6298\u8d77", "lat": "23.975744", "lon": "120.979772"}, {"name": "\u5fd7\u658c\u8c46\u74e3\u91ac\u6545\u4e8b\u9928", "address": "\u5ca1\u5c71\u5340\u5927\u838a\u8def72\u865f", "store_type": "\u65c5\u904a\u4f11\u61a9", "storediscount": "\u51e1\u4f86\u5e97\u6253\u5361\u3001Google \u8a55\u8ad6\u4e94\u9846\u661f\u5373\u8d08\u5c0f\u91ac\u52fa\u4e59\u652f", "lat": "25.006147", "lon": "121.172207"}, {"name": "\u7d05\u9802\u7a40\u5275\u7a40\u7269\u6587\u5275\u6a02\u5712", "address": "\u5de6\u71df\u5340\u6c11\u65cf\u4e00\u8def709\u865f", "store_type": "\u89c0\u5149\u5de5\u5ee0", "storediscount": "", "lat": "22.637281", "lon": "120.313667"}, {"name": "\u8607\u8001\u723a\u624b\u5de5\u5065\u5eb7\u672c\u8216", "address": "\u9ce5\u677e\u5340\u4ec1\u52c7\u8def181\u865f", "store_type": "\u9910\u98f2\u7f8e\u98df", "storediscount": "", "lat": "22.675531", "lon": "120.357066"}, {"name": "\u7d2b\u8776\u624b\u5de5\u70d8\u7119\u574a", "address": "\u9ad8\u96c4\u5e02\u516d\u9f9c\u5340\u5929\u6d25\u91cc\u5927\u6d252\u865f", "store_type": "\u9910\u98f2\u7f8e\u98df", "storediscount": "\u6d88\u8cbb\u6eff\u5343\u9001\u74b0\u4fdd\u63d0\u888b", "lat": "22.87985235", "lon": "120.64882471"}]