[{"name": "\u7af9\u7530\u9a5b\u7ad9", "address": "\u5c4f\u6771\u7e23\u7af9\u7530\u9109\u8c50\u660e\u8def27-1\u865f", "lat": "22.586475", "lon": "120.539955"}, {"name": "\u4f73\u51ac\u5ba2\u5bb6\u805a\u843d", "address": "\u5c4f\u6771\u7e23\u4f73\u51ac\u9109\u6e9d\u6e1a\u8def150\u865f", "lat": "22.417865", "lon": "120.550255"}, {"name": "\u4e94\u6e9d\u6c34\u5925\u623f\u805a\u843d", "address": "\u5c4f\u6771\u7e23\u842c\u5dd2\u9109\u4e94\u6e9d\u6751\u897f\u76db\u8def59\u865f", "lat": "22.590016", "lon": "120.596293"}, {"name": "\u5167\u57d4\u6771\u7247\u5bf6\u77f3\u6751", "address": "\u5c4f\u6771\u7e23\u5167\u57d4\u9109\u6771\u7247\u6751\u5927\u540c\u8def\u56db\u6bb5262\u865f2\u6a13", "lat": "22.653947", "lon": "120.590441"}, {"name": "\u5927\u98a8\u8349\u5712", "address": "\u5c4f\u6771\u7e23\u65b0\u57e4\u9109\u5efa\u529f\u6751\u5efa\u6210\u5df710\u865f", "lat": "22.476009", "lon": "120.562297"}, {"name": "\u827e\u7c73\u9054\u7cbe\u9748\u8c37\u8336\u6a39\u838a\u5712(\u4f11\u9592\u8fb2\u5834)", "address": "\u5c4f\u6771\u7e23\u65b0\u57e4\u9109\u7b95\u6e56\u6751\u6c11\u773e\u8def2-77\u865f", "lat": "22.469599", "lon": "120.595165"}, {"name": "\u53ef\u8335\u5c71\u53ef\u53ef\u838a\u5712(\u678b\u5bee\u838a\u5712)", "address": "\u5c4f\u6771\u7e23\u678b\u5bee\u9109\u592a\u6e90\u6751\u4e2d\u5c71\u8def\u4e09\u6bb5121\u865f", "lat": "22.424572", "lon": "120.579176"}, {"name": "\u67da\u5712\u751f\u614b\u4f11\u9592\u8fb2\u5834", "address": "\u5c4f\u6771\u7e23\u9e9f\u6d1b\u9109\u65b0\u7530\u675116\u9130\u6c11\u65cf\u8def453-2\u865f", "lat": "22.666184", "lon": "120.553932"}, {"name": "\u6c90\u96e8\u937e\u6797\u751f\u614b\u5fc3\u9748\u4f11\u9592\u8fb2\u5834", "address": "\u5c4f\u6771\u7e23\u6f6e\u5dde\u93ae\u6cd7\u6797\u91cc\u958b\u5143\u8def1-52\u865f(\u6cd7\u6797\u570b\u5c0f\u5f8c)", "lat": "22.543037", "lon": "120.574414"}, {"name": "\u53ef\u8335\u5c71\u53ef\u53ef\u838a\u5712\u4f11\u9592\u8fb2\u5834", "address": "\u5c4f\u6771\u7e23\u842c\u5dd2\u9109\u842c\u548c\u6751\u5fa9\u8208\u8def2-55\u865f", "lat": "22.567744", "lon": "120.565533"}, {"name": "\u85b0\u4e4b\u5712\u9999\u8349\u4f11\u9592\u8fb2\u5834", "address": "\u5c4f\u6771\u7e23\u91cc\u6e2f\u9109\u904e\u6c5f\u675112\u9130\u904e\u6c5f\u8def126\u865f", "lat": "22.784587", "lon": "120.498168"}, {"name": "\u5927\u8309\u8389\u4f11\u9592\u8fb2\u5834", "address": "\u5c4f\u6771\u7e23\u91cc\u6e2f\u9109\u8f09\u8208\u675116\u9130\u8f09\u5357\u8def19\u5df712\u5f0420\u865f", "lat": "22.776704", "lon": "120.54543"}, {"name": "\u4ef0\u5c71\u4f11\u9592\u8fb2\u5834", "address": "\u5c4f\u6771\u7e23\u9ad8\u6a39\u9109\u65b0\u8c50\u6751\u62d3\u6797\u5df710\u865f(\u65b0\u8c50\u4f11\u9592\u8fb2\u696d\u5340\u904a\u5ba2\u4e2d\u5fc3)", "lat": "22.871702", "lon": "120.642938"}, {"name": "\u9d3b\u65d7\u6709\u6a5f\u4f11\u9592\u8fb2\u5834", "address": "\u5c4f\u6771\u7e23\u9ad8\u6a39\u9109\u6cf0\u5c71\u6751\u7522\u696d\u8def329\u865f", "lat": "22.794622", "lon": "120.610656"}, {"name": "\u678b\u5bee\u5de7\u8335\u5c71\u4f11\u9592\u8fb2\u5834", "address": "\u5c4f\u6771\u7e23\u678b\u5bee\u9109\u592a\u539f\u6751\u4e2d\u5c71\u8def\u4e09\u6bb5121\u3001123\u865f", "lat": "22.424572", "lon": "120.579176"}, {"name": "\u963f\u4fe1\u5de7\u514b\u529b\u4f11\u9592\u8fb2\u5834", "address": "\u5c4f\u6771\u7e23\u6046\u6625\u93ae\u5c71\u6d77\u91cc\u842c\u91cc\u8def10-8\u865f", "lat": "21.997633", "lon": "120.706459"}, {"name": "\u9298\u6cc9\u751f\u614b\u4f11\u9592\u8fb2\u5834", "address": "\u5c4f\u6771\u7e23\u746a\u5bb6\u9109\u4f73\u7fa9\u6751\u6cf0\u5e73\u5df7114-16\u865f", "lat": "22.663", "lon": "120.632084"}, {"name": "\u5929\u4f7f\u82b1\u5712\u4f11\u9592\u8fb2\u5834", "address": "\u5c4f\u6771\u7e23\u7af9\u7530\u9109\u798f\u5b89\u8def 120\u5df799\u865f", "lat": "22.565089", "lon": "120.513676"}, {"name": "\u798f\u7063\u838a\u5712\u4f11\u9592\u8fb2\u5834", "address": "\u5c4f\u6771\u7e23\u6771\u6e2f\u93ae\u5927\u9d6c\u8def100\u865f", "lat": "22.458187", "lon": "120.482525"}]